{"data": {"stations": [{"capacity": 11, "short_name": "15443", "rental_uris": {"ios": "https://chi.lft.to/lastmile_qr_scan", "android": "https://chi.lft.to/lastmile_qr_scan"}, "name": "Shields Ave & 28th Pl", "lat": 41.842733, "station_id": "a3ad13e4-a135-11e9-9cda-0a87ae2ba916", "lon": -87.635491}, {"capacity": 20, "short_name": "chargingstx4", "rental_uris": {"ios": "https://chi.lft.to/lastmile_qr_scan", "android": "https://chi.lft.to/lastmile_qr_scan"}, "name": "Morgan St & Lake St*", "lat": 41.88549170626906, "station_id": "94788869-1849-43f6-99e1-2eacbc3fab03", "lon": -87.65228927135468}, {"capacity": 15, "short_name": "TA1307000143", "rental_uris": {"ios": "https://chi.lft.to/lastmile_qr_scan", "android": "https://chi.lft.to/lastmile_qr_scan"}, "name": "Sedgwick St & Schiller St", "lat": 41.907626, "station_id": "a3a854bf-a135-11e9-9cda-0a87ae2ba916", "lon": -87.638566}, {"capacity": 23, "short_name": "13150", "rental_uris": {"ios": "https://chi.lft.to/lastmile_qr_scan", "android": "https://chi.lft.to/lastmile_qr_scan"}, "name": "Michigan Ave & 18th St", "lat": 41.857926, "station_id": "a3a99d47-a135-11e9-9cda-0a87ae2ba916", "lon": -87.624336}, {"capacity": 15, "short_name": "13325", "rental_uris": {"ios": "https://chi.lft.to/lastmile_qr_scan", "android": "https://chi.lft.to/lastmile_qr_scan"}, "name": "Broadway & Waveland Ave", "lat": 41.949074, "station_id": "a3aa4017-a135-11e9-9cda-0a87ae2ba916", "lon": -87.648636}, {"capacity": 15, "short_name": "TA1308000038", "rental_uris": {"ios": "https://chi.lft.to/lastmile_qr_scan", "android": "https://chi.lft.to/lastmile_qr_scan"}, "name": "Cottage Grove Ave & Oakwood Blvd", "lat": 41.822985, "station_id": "a3a97a01-a135-11e9-9cda-0a87ae2ba916", "lon": -87.6071}, {"capacity": 19, "short_name": "13206", "rental_uris": {"ios": "https://chi.lft.to/lastmile_qr_scan", "android": "https://chi.lft.to/lastmile_qr_scan"}, "name": "Loomis St & Jackson Blvd", "lat": 41.877945, "station_id": "a3a62aad-a135-11e9-9cda-0a87ae2ba916", "lon": -87.662007}, {"capacity": 11, "short_name": "15449", "rental_uris": {"ios": "https://chi.lft.to/lastmile_qr_scan", "android": "https://chi.lft.to/lastmile_qr_scan"}, "name": "State St & Pershing Rd", "lat": 41.82301523798, "station_id": "a3ad2d57-a135-11e9-9cda-0a87ae2ba916", "lon": -87.6265680185}, {"capacity": 23, "short_name": "TA1305000039", "rental_uris": {"ios": "https://chi.lft.to/lastmile_qr_scan", "android": "https://chi.lft.to/lastmile_qr_scan"}, "name": "Elston Ave & Cortland St", "lat": 41.91643342912655, "station_id": "a3a48d5c-a135-11e9-9cda-0a87ae2ba916", "lon": -87.66674637794495}, {"capacity": 23, "short_name": "13389", "rental_uris": {"ios": "https://chi.lft.to/lastmile_qr_scan", "android": "https://chi.lft.to/lastmile_qr_scan"}, "name": "Clarendon Ave & Junior Ter", "lat": 41.961004, "station_id": "a3a8855c-a135-11e9-9cda-0a87ae2ba916", "lon": -87.649603}, {"capacity": 27, "short_name": "13045", "rental_uris": {"ios": "https://chi.lft.to/lastmile_qr_scan", "android": "https://chi.lft.to/lastmile_qr_scan"}, "name": "Dearborn St & Erie St", "lat": 41.893992, "station_id": "a3a5700b-a135-11e9-9cda-0a87ae2ba916", "lon": -87.629318}, {"capacity": 11, "short_name": "540", "rental_uris": {"ios": "https://chi.lft.to/lastmile_qr_scan", "android": "https://chi.lft.to/lastmile_qr_scan"}, "name": "Laramie Ave & Madison St", "lat": 41.880207, "station_id": "a3b148bf-a135-11e9-9cda-0a87ae2ba916", "lon": -87.755337}, {"capacity": 19, "short_name": "18058", "rental_uris": {"ios": "https://chi.lft.to/lastmile_qr_scan", "android": "https://chi.lft.to/lastmile_qr_scan"}, "name": "Leavitt St & Chicago Ave", "lat": 41.895501, "station_id": "a3b48c07-a135-11e9-9cda-0a87ae2ba916", "lon": -87.682017}, {"capacity": 15, "short_name": "KA1503000054", "rental_uris": {"ios": "https://chi.lft.to/lastmile_qr_scan", "android": "https://chi.lft.to/lastmile_qr_scan"}, "name": "Cottage Grove Ave & 63rd St", "lat": 41.78053094070882, "station_id": "a3ad95a7-a135-11e9-9cda-0a87ae2ba916", "lon": -87.6059702038765}, {"capacity": 31, "short_name": "TA1308000012", "rental_uris": {"ios": "https://chi.lft.to/lastmile_qr_scan", "android": "https://chi.lft.to/lastmile_qr_scan"}, "name": "Montrose Harbor", "lat": 41.963982, "station_id": "a3a8999a-a135-11e9-9cda-0a87ae2ba916", "lon": -87.638181}, {"capacity": 15, "short_name": "21406", "rental_uris": {"ios": "https://chi.lft.to/lastmile_qr_scan", "android": "https://chi.lft.to/lastmile_qr_scan"}, "name": "Kostner Ave & 63rd St", "lat": 41.77875, "station_id": "1938034236347042306", "lon": -87.73246}, {"capacity": 15, "short_name": "13135", "rental_uris": {"ios": "https://chi.lft.to/lastmile_qr_scan", "android": "https://chi.lft.to/lastmile_qr_scan"}, "name": "Blue Island Ave & 18th St", "lat": 41.857556, "station_id": "a3a5d3bb-a135-11e9-9cda-0a87ae2ba916", "lon": -87.661535}, {"capacity": 15, "short_name": "22003", "rental_uris": {"ios": "https://chi.lft.to/lastmile_qr_scan", "android": "https://chi.lft.to/lastmile_qr_scan"}, "name": "University Ave & 59th St", "lat": 41.787878, "station_id": "1850868044363584392", "lon": -87.598906}, {"capacity": 15, "short_name": "20215", "rental_uris": {"ios": "https://chi.lft.to/lastmile_qr_scan", "android": "https://chi.lft.to/lastmile_qr_scan"}, "name": "Hegewisch Metra Station", "lat": 41.64850076266409, "station_id": "ff21c158-de98-46c6-9ef7-7082bdb7c634", "lon": -87.54608988761902}, {"capacity": 11, "short_name": "13162", "rental_uris": {"ios": "https://chi.lft.to/lastmile_qr_scan", "android": "https://chi.lft.to/lastmile_qr_scan"}, "name": "Halsted St & 21st St", "lat": 41.85377981072743, "station_id": "a3a5f5e6-a135-11e9-9cda-0a87ae2ba916", "lon": -87.6466029882431}, {"capacity": 16, "short_name": "24478", "rental_uris": {"ios": "https://chi.lft.to/lastmile_qr_scan", "android": "https://chi.lft.to/lastmile_qr_scan"}, "name": "Menard Ave & Milwaukee Ave", "lat": 41.98139, "station_id": "2020809814916515864", "lon": -87.77331}, {"capacity": 15, "short_name": "20104", "rental_uris": {"ios": "https://chi.lft.to/lastmile_qr_scan", "android": "https://chi.lft.to/lastmile_qr_scan"}, "name": "State St & 95th St", "lat": 41.7218499, "station_id": "792ceba0-564f-4a2c-bcb5-90da781ffeef", "lon": -87.6228544}, {"capacity": 15, "short_name": "643", "rental_uris": {"ios": "https://chi.lft.to/lastmile_qr_scan", "android": "https://chi.lft.to/lastmile_qr_scan"}, "name": "Smith Park", "lat": 41.892048, "station_id": "a3b4399a-a135-11e9-9cda-0a87ae2ba916", "lon": -87.689397}, {"capacity": 11, "short_name": "KA1504000086", "rental_uris": {"ios": "https://chi.lft.to/lastmile_qr_scan", "android": "https://chi.lft.to/lastmile_qr_scan"}, "name": "Kedzie Ave & 24th St", "lat": 41.848193, "station_id": "a3addda0-a135-11e9-9cda-0a87ae2ba916", "lon": -87.705412}, {"capacity": 15, "short_name": "KA1504000117", "rental_uris": {"ios": "https://chi.lft.to/lastmile_qr_scan", "android": "https://chi.lft.to/lastmile_qr_scan"}, "name": "Halsted St & North Branch St", "lat": 41.89939028549696, "station_id": "a3ac7444-a135-11e9-9cda-0a87ae2ba916", "lon": -87.64854490756989}, {"capacity": 15, "short_name": "13345", "rental_uris": {"ios": "https://chi.lft.to/lastmile_qr_scan", "android": "https://chi.lft.to/lastmile_qr_scan"}, "name": "Calumet Ave & 35th St", "lat": 41.831379, "station_id": "a3aae35a-a135-11e9-9cda-0a87ae2ba916", "lon": -87.618034}, {"capacity": 11, "short_name": "16948", "rental_uris": {"ios": "https://chi.lft.to/lastmile_qr_scan", "android": "https://chi.lft.to/lastmile_qr_scan"}, "name": "Ashland Ave & 63rd St", "lat": 41.779374, "station_id": "a3b23785-a135-11e9-9cda-0a87ae2ba916", "lon": -87.664843}, {"capacity": 15, "short_name": "657", "rental_uris": {"ios": "https://chi.lft.to/lastmile_qr_scan", "android": "https://chi.lft.to/lastmile_qr_scan"}, "name": "Wood St & Augusta Blvd", "lat": 41.899181, "station_id": "a3b481e1-a135-11e9-9cda-0a87ae2ba916", "lon": -87.6722}, {"capacity": 15, "short_name": "16994", "rental_uris": {"ios": "https://chi.lft.to/lastmile_qr_scan", "android": "https://chi.lft.to/lastmile_qr_scan"}, "name": "Kilbourn Ave & Milwaukee Ave", "lat": 41.94707089418471, "station_id": "a3b2c87c-a135-11e9-9cda-0a87ae2ba916", "lon": -87.74000823497772}, {"capacity": 15, "short_name": "21338", "rental_uris": {"ios": "https://chi.lft.to/lastmile_qr_scan", "android": "https://chi.lft.to/lastmile_qr_scan"}, "name": "California Ave & 36th St", "lat": 41.828098, "station_id": "1934289361049585738", "lon": -87.694684}, {"capacity": 16, "short_name": "24369", "rental_uris": {"ios": "https://chi.lft.to/lastmile_qr_scan", "android": "https://chi.lft.to/lastmile_qr_scan"}, "name": "Menard Ave & Lawrence Ave", "lat": 41.96788, "station_id": "1969236968943731106", "lon": -87.77274}, {"capacity": 11, "short_name": "KA1503000021", "rental_uris": {"ios": "https://chi.lft.to/lastmile_qr_scan", "android": "https://chi.lft.to/lastmile_qr_scan"}, "name": "Stony Island Ave & 64th St", "lat": 41.778881, "station_id": "a3a528d0-a135-11e9-9cda-0a87ae2ba916", "lon": -87.586647}, {"capacity": 15, "short_name": "21336", "rental_uris": {"ios": "https://chi.lft.to/lastmile_qr_scan", "android": "https://chi.lft.to/lastmile_qr_scan"}, "name": "La Villita Park", "lat": 41.83925, "station_id": "1943245395846580390", "lon": -87.70202}, {"capacity": 12, "short_name": "chargingstx3", "rental_uris": {"ios": "https://chi.lft.to/lastmile_qr_scan", "android": "https://chi.lft.to/lastmile_qr_scan"}, "name": "Green St & Randolph St*", "lat": 41.883601657275165, "station_id": "430d5876-c44d-446e-ac53-065da9fb9c17", "lon": -87.64862671494483}, {"capacity": 16, "short_name": "24324", "rental_uris": {"ios": "https://chi.lft.to/lastmile_qr_scan", "android": "https://chi.lft.to/lastmile_qr_scan"}, "name": "Nagle Ave & Belmont Ave", "lat": 41.93852, "station_id": "1981488728284770592", "lon": -87.78735}, {"capacity": 11, "short_name": "TA1308000046", "rental_uris": {"ios": "https://chi.lft.to/lastmile_qr_scan", "android": "https://chi.lft.to/lastmile_qr_scan"}, "name": "Morgan St & 31st St", "lat": 41.8378, "station_id": "a3a9c0f6-a135-11e9-9cda-0a87ae2ba916", "lon": -87.65114}, {"capacity": 16, "short_name": "chargingstx5", "rental_uris": {"ios": "https://chi.lft.to/lastmile_qr_scan", "android": "https://chi.lft.to/lastmile_qr_scan"}, "name": "Lincoln Ave & Roscoe St*", "lat": 41.9433502470174, "station_id": "4843d153-c725-4230-a4c7-402da6a62143", "lon": -87.67066776752472}, {"capacity": 15, "short_name": "20214", "rental_uris": {"ios": "https://chi.lft.to/lastmile_qr_scan", "android": "https://chi.lft.to/lastmile_qr_scan"}, "name": "Avenue O & 134th St", "lat": 41.6519026853208, "station_id": "759171ce-f355-4740-948d-e14bb8f7dc0e", "lon": -87.53955539376464}, {"capacity": 11, "short_name": "16918", "rental_uris": {"ios": "https://chi.lft.to/lastmile_qr_scan", "android": "https://chi.lft.to/lastmile_qr_scan"}, "name": "Austin Blvd & Madison St", "lat": 41.880281, "station_id": "a3b1d532-a135-11e9-9cda-0a87ae2ba916", "lon": -87.774453}, {"capacity": 11, "short_name": "559", "rental_uris": {"ios": "https://chi.lft.to/lastmile_qr_scan", "android": "https://chi.lft.to/lastmile_qr_scan"}, "name": "Racine Ave & Garfield Blvd", "lat": 41.794228, "station_id": "a3b222fc-a135-11e9-9cda-0a87ae2ba916", "lon": -87.655073}, {"capacity": 11, "short_name": "16912", "rental_uris": {"ios": "https://chi.lft.to/lastmile_qr_scan", "android": "https://chi.lft.to/lastmile_qr_scan"}, "name": "Cicero Ave & Flournoy St", "lat": 41.872131, "station_id": "a3b13e66-a135-11e9-9cda-0a87ae2ba916", "lon": -87.746619}, {"capacity": 7, "short_name": "TA1309000003", "rental_uris": {"ios": "https://chi.lft.to/lastmile_qr_scan", "android": "https://chi.lft.to/lastmile_qr_scan"}, "name": "Western Ave & 24th St", "lat": 41.84847, "station_id": "a3a9c5f7-a135-11e9-9cda-0a87ae2ba916", "lon": -87.685109}, {"capacity": 11, "short_name": "20108", "rental_uris": {"ios": "https://chi.lft.to/lastmile_qr_scan", "android": "https://chi.lft.to/lastmile_qr_scan"}, "name": "Hale Ave & 107th St", "lat": 41.699206168127674, "station_id": "da9e6779-5056-4d45-bae3-9dc325ed2807", "lon": -87.66891896724701}, {"capacity": 23, "short_name": "TA1309000064", "rental_uris": {"ios": "https://chi.lft.to/lastmile_qr_scan", "android": "https://chi.lft.to/lastmile_qr_scan"}, "name": "Wolcott Ave & Polk St", "lat": 41.871262, "station_id": "a3ab86b6-a135-11e9-9cda-0a87ae2ba916", "lon": -87.673688}, {"capacity": 19, "short_name": "631", "rental_uris": {"ios": "https://chi.lft.to/lastmile_qr_scan", "android": "https://chi.lft.to/lastmile_qr_scan"}, "name": "Malcolm X College", "lat": 41.877618, "station_id": "a3b3915a-a135-11e9-9cda-0a87ae2ba916", "lon": -87.673895}, {"capacity": 19, "short_name": "TA1307000006", "rental_uris": {"ios": "https://chi.lft.to/lastmile_qr_scan", "android": "https://chi.lft.to/lastmile_qr_scan"}, "name": "Southport Ave & Wellington Ave", "lat": 41.93577461766458, "station_id": "a3a6c38e-a135-11e9-9cda-0a87ae2ba916", "lon": -87.66360014677048}, {"capacity": 19, "short_name": "TA1307000149", "rental_uris": {"ios": "https://chi.lft.to/lastmile_qr_scan", "android": "https://chi.lft.to/lastmile_qr_scan"}, "name": "Ravenswood Ave & Irving Park Rd", "lat": 41.95469, "station_id": "a3a8804b-a135-11e9-9cda-0a87ae2ba916", "lon": -87.67393}, {"capacity": 11, "short_name": "16951", "rental_uris": {"ios": "https://chi.lft.to/lastmile_qr_scan", "android": "https://chi.lft.to/lastmile_qr_scan"}, "name": "Damen Ave & 74th St", "lat": 41.759274039331224, "station_id": "a3b24701-a135-11e9-9cda-0a87ae2ba916", "lon": -87.67363429069519}, {"capacity": 15, "short_name": "KA1504000158", "rental_uris": {"ios": "https://chi.lft.to/lastmile_qr_scan", "android": "https://chi.lft.to/lastmile_qr_scan"}, "name": "Oakley Ave & Irving Park Rd", "lat": 41.95434085219, "station_id": "a3afbe2e-a135-11e9-9cda-0a87ae2ba916", "lon": -87.6860796243}, {"capacity": 7, "short_name": "554", "rental_uris": {"ios": "https://chi.lft.to/lastmile_qr_scan", "android": "https://chi.lft.to/lastmile_qr_scan"}, "name": "Damen Ave & 51st St", "lat": 41.800908, "station_id": "a3b20960-a135-11e9-9cda-0a87ae2ba916", "lon": -87.674684}, {"capacity": 15, "short_name": "24379", "rental_uris": {"ios": "https://chi.lft.to/lastmile_qr_scan", "android": "https://chi.lft.to/lastmile_qr_scan"}, "name": "Martin Luther King Dr & 87th St", "lat": 41.73677, "station_id": "1970688521031469268", "lon": -87.61439}, {"capacity": 11, "short_name": "15666", "rental_uris": {"ios": "https://chi.lft.to/lastmile_qr_scan", "android": "https://chi.lft.to/lastmile_qr_scan"}, "name": "California Ave & Lake St", "lat": 41.88445395657, "station_id": "a3acb1de-a135-11e9-9cda-0a87ae2ba916", "lon": -87.6962981368}, {"capacity": 19, "short_name": "TA1307000138", "rental_uris": {"ios": "https://chi.lft.to/lastmile_qr_scan", "android": "https://chi.lft.to/lastmile_qr_scan"}, "name": "Wood St & Webster Ave", "lat": 41.92105672992757, "station_id": "a3a83ba1-a135-11e9-9cda-0a87ae2ba916", "lon": -87.67279744148254}, {"capacity": 15, "short_name": "KA1503000065", "rental_uris": {"ios": "https://chi.lft.to/lastmile_qr_scan", "android": "https://chi.lft.to/lastmile_qr_scan"}, "name": "Woodlawn Ave & Lake Park Ave", "lat": 41.81409271048, "station_id": "a3ad4d1b-a135-11e9-9cda-0a87ae2ba916", "lon": -87.5970051479}, {"capacity": 15, "short_name": "21387", "rental_uris": {"ios": "https://chi.lft.to/lastmile_qr_scan", "android": "https://chi.lft.to/lastmile_qr_scan"}, "name": "St Louis Ave & 59th St", "lat": 41.78589, "station_id": "1936552461714393094", "lon": -87.71057}, {"capacity": 11, "short_name": "580", "rental_uris": {"ios": "https://chi.lft.to/lastmile_qr_scan", "android": "https://chi.lft.to/lastmile_qr_scan"}, "name": "Exchange Ave & 79th St", "lat": 41.75211500633265, "station_id": "a3b2905a-a135-11e9-9cda-0a87ae2ba916", "lon": -87.55200700025293}, {"capacity": 23, "short_name": "TA1307000070", "rental_uris": {"ios": "https://chi.lft.to/lastmile_qr_scan", "android": "https://chi.lft.to/lastmile_qr_scan"}, "name": "Damen Ave & Thomas St (Augusta Blvd)", "lat": 41.901315, "station_id": "a3a75885-a135-11e9-9cda-0a87ae2ba916", "lon": -87.677409}, {"capacity": 16, "short_name": "24283", "rental_uris": {"ios": "https://chi.lft.to/lastmile_qr_scan", "android": "https://chi.lft.to/lastmile_qr_scan"}, "name": "Pulaski Rd & 60th Pl", "lat": 41.78315, "station_id": "1992234898774407528", "lon": -87.72257}, {"capacity": 19, "short_name": "TA1309000033", "rental_uris": {"ios": "https://chi.lft.to/lastmile_qr_scan", "android": "https://chi.lft.to/lastmile_qr_scan"}, "name": "Sheffield Ave & Webster Ave", "lat": 41.92154, "station_id": "a3aabad8-a135-11e9-9cda-0a87ae2ba916", "lon": -87.653818}, {"capacity": 39, "short_name": "15541.1.1", "rental_uris": {"ios": "https://chi.lft.to/lastmile_qr_scan", "android": "https://chi.lft.to/lastmile_qr_scan"}, "name": "Buckingham Fountain", "lat": 41.876368, "station_id": "1862806445904101456", "lon": -87.6205586}, {"capacity": 15, "short_name": "TA1306000007", "rental_uris": {"ios": "https://chi.lft.to/lastmile_qr_scan", "android": "https://chi.lft.to/lastmile_qr_scan"}, "name": "Larrabee St & Menomonee St", "lat": 41.91468, "station_id": "a3a3f0c6-a135-11e9-9cda-0a87ae2ba916", "lon": -87.64332}, {"capacity": 15, "short_name": "13124", "rental_uris": {"ios": "https://chi.lft.to/lastmile_qr_scan", "android": "https://chi.lft.to/lastmile_qr_scan"}, "name": "Cannon Dr & Fullerton Ave", "lat": 41.9267559875, "station_id": "a3a41004-a135-11e9-9cda-0a87ae2ba916", "lon": -87.6344287848}, {"capacity": 19, "short_name": "13133", "rental_uris": {"ios": "https://chi.lft.to/lastmile_qr_scan", "android": "https://chi.lft.to/lastmile_qr_scan"}, "name": "Damen Ave & Cortland St", "lat": 41.915983, "station_id": "a3a80512-a135-11e9-9cda-0a87ae2ba916", "lon": -87.677335}, {"capacity": 15, "short_name": "RP-005", "rental_uris": {"ios": "https://chi.lft.to/lastmile_qr_scan", "android": "https://chi.lft.to/lastmile_qr_scan"}, "name": "Western Ave & Lunt Ave", "lat": 42.0085943972, "station_id": "a3af5d1c-a135-11e9-9cda-0a87ae2ba916", "lon": -87.6904922389}, {"capacity": 16, "short_name": "24358", "rental_uris": {"ios": "https://chi.lft.to/lastmile_qr_scan", "android": "https://chi.lft.to/lastmile_qr_scan"}, "name": "Loomis St & 95th St", "lat": 41.72148, "station_id": "2013067286975627866", "lon": -87.65774}, {"capacity": 15, "short_name": "15491", "rental_uris": {"ios": "https://chi.lft.to/lastmile_qr_scan", "android": "https://chi.lft.to/lastmile_qr_scan"}, "name": "63rd St Beach", "lat": 41.78091096424803, "station_id": "a3a547b8-a135-11e9-9cda-0a87ae2ba916", "lon": -87.57632374763489}, {"capacity": 15, "short_name": "13292", "rental_uris": {"ios": "https://chi.lft.to/lastmile_qr_scan", "android": "https://chi.lft.to/lastmile_qr_scan"}, "name": "Kedzie Ave & Palmer Ct", "lat": 41.921525, "station_id": "a3a9f76a-a135-11e9-9cda-0a87ae2ba916", "lon": -87.707322}, {"capacity": 11, "short_name": "16970", "rental_uris": {"ios": "https://chi.lft.to/lastmile_qr_scan", "android": "https://chi.lft.to/lastmile_qr_scan"}, "name": "Bennett Ave & 79th St", "lat": 41.751785, "station_id": "a3b2862e-a135-11e9-9cda-0a87ae2ba916", "lon": -87.578496}, {"capacity": 15, "short_name": "637", "rental_uris": {"ios": "https://chi.lft.to/lastmile_qr_scan", "android": "https://chi.lft.to/lastmile_qr_scan"}, "name": "Wood St & Chicago Ave", "lat": 41.895634, "station_id": "a3b419d9-a135-11e9-9cda-0a87ae2ba916", "lon": -87.672069}, {"capacity": 11, "short_name": "22001", "rental_uris": {"ios": "https://chi.lft.to/lastmile_qr_scan", "android": "https://chi.lft.to/lastmile_qr_scan"}, "name": "Wells St & Institute Pl", "lat": 41.89737986072316, "station_id": "90011328-f7bd-4b7b-8f95-8204a0b50f27", "lon": -87.63442039489746}, {"capacity": 15, "short_name": "23002", "rental_uris": {"ios": "https://chi.lft.to/lastmile_qr_scan", "android": "https://chi.lft.to/lastmile_qr_scan"}, "name": "Lincoln Ave & Byron St", "lat": 41.952372, "station_id": "1799277526470631980", "lon": -87.677296}, {"capacity": 19, "short_name": "TA1309000041", "rental_uris": {"ios": "https://chi.lft.to/lastmile_qr_scan", "android": "https://chi.lft.to/lastmile_qr_scan"}, "name": "Sheridan Rd & Lawrence Ave", "lat": 41.969517, "station_id": "a3aaa68b-a135-11e9-9cda-0a87ae2ba916", "lon": -87.654691}, {"capacity": 11, "short_name": "593", "rental_uris": {"ios": "https://chi.lft.to/lastmile_qr_scan", "android": "https://chi.lft.to/lastmile_qr_scan"}, "name": "Halsted St & 59th St", "lat": 41.787539, "station_id": "a3b2d2b7-a135-11e9-9cda-0a87ae2ba916", "lon": -87.644874}, {"capacity": 15, "short_name": "24178", "rental_uris": {"ios": "https://chi.lft.to/lastmile_qr_scan", "android": "https://chi.lft.to/lastmile_qr_scan"}, "name": "Meade Ave & Fullerton Ave", "lat": 41.924751, "station_id": "1934288718318207280", "lon": -87.778272}, {"capacity": 15, "short_name": "24326", "rental_uris": {"ios": "https://chi.lft.to/lastmile_qr_scan", "android": "https://chi.lft.to/lastmile_qr_scan"}, "name": "Long Ave & Diversey Ave", "lat": 41.93104, "station_id": "1961472602929588766", "lon": -87.76124}, {"capacity": 15, "short_name": "24230", "rental_uris": {"ios": "https://chi.lft.to/lastmile_qr_scan", "android": "https://chi.lft.to/lastmile_qr_scan"}, "name": "Homan Ave & 26th St", "lat": 41.84425, "station_id": "1975902497437067330", "lon": -87.70983}, {"capacity": 15, "short_name": "21322", "rental_uris": {"ios": "https://chi.lft.to/lastmile_qr_scan", "android": "https://chi.lft.to/lastmile_qr_scan"}, "name": "Grace St & Cicero Ave", "lat": 41.94973, "station_id": "1936582560225114270", "lon": -87.74695}, {"capacity": 15, "short_name": "24146", "rental_uris": {"ios": "https://chi.lft.to/lastmile_qr_scan", "android": "https://chi.lft.to/lastmile_qr_scan"}, "name": "Knox Ave & Marquette Ave", "lat": 41.77114, "station_id": "1945195957167804800", "lon": -87.73774}, {"capacity": 11, "short_name": "24267", "rental_uris": {"ios": "https://chi.lft.to/lastmile_qr_scan", "android": "https://chi.lft.to/lastmile_qr_scan"}, "name": "Mozart St & 55th St", "lat": 41.79375, "station_id": "1966307477149012058", "lon": -87.69472}, {"capacity": 11, "short_name": "24266", "rental_uris": {"ios": "https://chi.lft.to/lastmile_qr_scan", "android": "https://chi.lft.to/lastmile_qr_scan"}, "name": "Kedzie Ave & 54th Pl", "lat": 41.79431, "station_id": "1963359453732131538", "lon": -87.70348}, {"capacity": 11, "short_name": "594", "rental_uris": {"ios": "https://chi.lft.to/lastmile_qr_scan", "android": "https://chi.lft.to/lastmile_qr_scan"}, "name": "Western Blvd & 48th Pl", "lat": 41.805661, "station_id": "a3b2d7d9-a135-11e9-9cda-0a87ae2ba916", "lon": -87.683392}, {"capacity": 15, "short_name": "1524189", "rental_uris": {"ios": "https://chi.lft.to/lastmile_qr_scan", "android": "https://chi.lft.to/lastmile_qr_scan"}, "name": "Lowell Ave & Armitage Ave", "lat": 41.9170767, "station_id": "1929905600854819414", "lon": -87.7353543}, {"capacity": 15, "short_name": "TA1309000067", "rental_uris": {"ios": "https://chi.lft.to/lastmile_qr_scan", "android": "https://chi.lft.to/lastmile_qr_scan"}, "name": "Cottage Grove Ave & 51st St", "lat": 41.803038, "station_id": "a3ac30c5-a135-11e9-9cda-0a87ae2ba916", "lon": -87.606615}, {"capacity": 23, "short_name": "KA1504000103", "rental_uris": {"ios": "https://chi.lft.to/lastmile_qr_scan", "android": "https://chi.lft.to/lastmile_qr_scan"}, "name": "Western Ave & Walton St", "lat": 41.89841768945, "station_id": "a3ac9d43-a135-11e9-9cda-0a87ae2ba916", "lon": -87.6865960164}, {"capacity": 11, "short_name": "21394", "rental_uris": {"ios": "https://chi.lft.to/lastmile_qr_scan", "android": "https://chi.lft.to/lastmile_qr_scan"}, "name": "Panama Ave & Grace St", "lat": 41.94766, "station_id": "2010820263334840794", "lon": -87.82925}, {"capacity": 11, "short_name": "537", "rental_uris": {"ios": "https://chi.lft.to/lastmile_qr_scan", "android": "https://chi.lft.to/lastmile_qr_scan"}, "name": "Kenton Ave & Madison St", "lat": 41.88042, "station_id": "a3b13836-a135-11e9-9cda-0a87ae2ba916", "lon": -87.74108}, {"capacity": 15, "short_name": "20105", "rental_uris": {"ios": "https://chi.lft.to/lastmile_qr_scan", "android": "https://chi.lft.to/lastmile_qr_scan"}, "name": "Halsted St & 96th St", "lat": 41.719712183618824, "station_id": "a21de1a5-f5bc-4b50-8a13-aa28b7dcfa95", "lon": -87.6430195569992}, {"capacity": 11, "short_name": "KA1503000030", "rental_uris": {"ios": "https://chi.lft.to/lastmile_qr_scan", "android": "https://chi.lft.to/lastmile_qr_scan"}, "name": "Jeffery Blvd & 67th St", "lat": 41.77351755125, "station_id": "a3ac35ed-a135-11e9-9cda-0a87ae2ba916", "lon": -87.5771428255}, {"capacity": 15, "short_name": "15632", "rental_uris": {"ios": "https://chi.lft.to/lastmile_qr_scan", "android": "https://chi.lft.to/lastmile_qr_scan"}, "name": "Talman Ave & Addison St", "lat": 41.9466358306, "station_id": "a3afd7ab-a135-11e9-9cda-0a87ae2ba916", "lon": -87.694614758}, {"capacity": 11, "short_name": "15599", "rental_uris": {"ios": "https://chi.lft.to/lastmile_qr_scan", "android": "https://chi.lft.to/lastmile_qr_scan"}, "name": "Calumet Ave & 71st St", "lat": 41.76550800581, "station_id": "a3acea44-a135-11e9-9cda-0a87ae2ba916", "lon": -87.616917925}, {"capacity": 15, "short_name": "TA1309000043", "rental_uris": {"ios": "https://chi.lft.to/lastmile_qr_scan", "android": "https://chi.lft.to/lastmile_qr_scan"}, "name": "Southport Ave & Irving Park Rd", "lat": 41.954177, "station_id": "a3aa8ca0-a135-11e9-9cda-0a87ae2ba916", "lon": -87.664358}, {"capacity": 23, "short_name": "RP-009", "rental_uris": {"ios": "https://chi.lft.to/lastmile_qr_scan", "android": "https://chi.lft.to/lastmile_qr_scan"}, "name": "Sheridan Rd & Loyola Ave", "lat": 42.00104377979, "station_id": "a3ae87fa-a135-11e9-9cda-0a87ae2ba916", "lon": -87.6611982433}, {"capacity": 15, "short_name": "24340", "rental_uris": {"ios": "https://chi.lft.to/lastmile_qr_scan", "android": "https://chi.lft.to/lastmile_qr_scan"}, "name": "Wabash Ave & 49th St", "lat": 41.80581, "station_id": "1963673207600511026", "lon": -87.6245}, {"capacity": 15, "short_name": "21337", "rental_uris": {"ios": "https://chi.lft.to/lastmile_qr_scan", "android": "https://chi.lft.to/lastmile_qr_scan"}, "name": "Hoyne Ave & 34th St", "lat": 41.8320245, "station_id": "1934289130932983934", "lon": -87.6778387}, {"capacity": 15, "short_name": "24285", "rental_uris": {"ios": "https://chi.lft.to/lastmile_qr_scan", "android": "https://chi.lft.to/lastmile_qr_scan"}, "name": "Kildare Ave & Archer Ave", "lat": 41.80034, "station_id": "1963672425916463636", "lon": -87.73079}, {"capacity": 23, "short_name": "TA1305000034", "rental_uris": {"ios": "https://chi.lft.to/lastmile_qr_scan", "android": "https://chi.lft.to/lastmile_qr_scan"}, "name": "Honore St & Division St", "lat": 41.903119, "station_id": "a3a3b731-a135-11e9-9cda-0a87ae2ba916", "lon": -87.673935}, {"capacity": 15, "short_name": "21360", "rental_uris": {"ios": "https://chi.lft.to/lastmile_qr_scan", "android": "https://chi.lft.to/lastmile_qr_scan"}, "name": "Kilbourn Ave & Roscoe St", "lat": 41.942722, "station_id": "1869054242749504212", "lon": -87.739557}, {"capacity": 15, "short_name": "20244", "rental_uris": {"ios": "https://chi.lft.to/lastmile_qr_scan", "android": "https://chi.lft.to/lastmile_qr_scan"}, "name": "Halsted St & 73rd St", "lat": 41.76160543804394, "station_id": "a60781db-2bec-4a15-a4a2-363297aefcec", "lon": -87.64416097666071}, {"capacity": 15, "short_name": "24245", "rental_uris": {"ios": "https://chi.lft.to/lastmile_qr_scan", "android": "https://chi.lft.to/lastmile_qr_scan"}, "name": "Western Ave & 43rd St", "lat": 41.81574, "station_id": "1943244109954931024", "lon": -87.68489}, {"capacity": 15, "short_name": "21304", "rental_uris": {"ios": "https://chi.lft.to/lastmile_qr_scan", "android": "https://chi.lft.to/lastmile_qr_scan"}, "name": "Lavergne Ave & Division St", "lat": 41.9021077, "station_id": "1928792940289520096", "lon": -87.7508698}, {"capacity": 19, "short_name": "TA1307000139", "rental_uris": {"ios": "https://chi.lft.to/lastmile_qr_scan", "android": "https://chi.lft.to/lastmile_qr_scan"}, "name": "MLK Jr Dr & 29th St", "lat": 41.842052, "station_id": "a3a859c4-a135-11e9-9cda-0a87ae2ba916", "lon": -87.617}, {"capacity": 15, "short_name": "525", "rental_uris": {"ios": "https://chi.lft.to/lastmile_qr_scan", "android": "https://chi.lft.to/lastmile_qr_scan"}, "name": "Glenwood Ave & Touhy Ave", "lat": 42.012701, "station_id": "a3b0fae6-a135-11e9-9cda-0a87ae2ba916", "lon": -87.666058}, {"capacity": 11, "short_name": "16915", "rental_uris": {"ios": "https://chi.lft.to/lastmile_qr_scan", "android": "https://chi.lft.to/lastmile_qr_scan"}, "name": "Central Ave & Harrison St", "lat": 41.872993, "station_id": "a3b1c47b-a135-11e9-9cda-0a87ae2ba916", "lon": -87.764499}, {"capacity": 15, "short_name": "13109", "rental_uris": {"ios": "https://chi.lft.to/lastmile_qr_scan", "android": "https://chi.lft.to/lastmile_qr_scan"}, "name": "Broadway & Berwyn Ave", "lat": 41.978361, "station_id": "a3aa0bb7-a135-11e9-9cda-0a87ae2ba916", "lon": -87.659789}, {"capacity": 35, "short_name": "TA1306000014", "rental_uris": {"ios": "https://chi.lft.to/lastmile_qr_scan", "android": "https://chi.lft.to/lastmile_qr_scan"}, "name": "Wilton Ave & Diversey Pkwy", "lat": 41.932418, "station_id": "a3a3a282-a135-11e9-9cda-0a87ae2ba916", "lon": -87.652705}, {"capacity": 11, "short_name": "KA1504000091", "rental_uris": {"ios": "https://chi.lft.to/lastmile_qr_scan", "android": "https://chi.lft.to/lastmile_qr_scan"}, "name": "Hoyne Ave & 47th St", "lat": 41.808227, "station_id": "a3b1fa1c-a135-11e9-9cda-0a87ae2ba916", "lon": -87.67718}, {"capacity": 15, "short_name": "15446", "rental_uris": {"ios": "https://chi.lft.to/lastmile_qr_scan", "android": "https://chi.lft.to/lastmile_qr_scan"}, "name": "Racine Ave & 35th St", "lat": 41.83068856472101, "station_id": "a3ac7e9a-a135-11e9-9cda-0a87ae2ba916", "lon": -87.65621066093445}, {"capacity": 16, "short_name": "KA17018054", "rental_uris": {"ios": "https://chi.lft.to/lastmile_qr_scan", "android": "https://chi.lft.to/lastmile_qr_scan"}, "name": "Damen Ave & Lake St", "lat": 41.8849659, "station_id": "a3b47cbc-a135-11e9-9cda-0a87ae2ba916", "lon": -87.6768354}, {"capacity": 11, "short_name": "KA1504000133", "rental_uris": {"ios": "https://chi.lft.to/lastmile_qr_scan", "android": "https://chi.lft.to/lastmile_qr_scan"}, "name": "Rush St & Cedar St", "lat": 41.90230870122, "station_id": "a3a72012-a135-11e9-9cda-0a87ae2ba916", "lon": -87.627690528}, {"capacity": 15, "short_name": "21354", "rental_uris": {"ios": "https://chi.lft.to/lastmile_qr_scan", "android": "https://chi.lft.to/lastmile_qr_scan"}, "name": "Parkside Ave & Armitage Ave", "lat": 41.916907, "station_id": "1871993715238611622", "lon": -87.767173}, {"capacity": 23, "short_name": "15535", "rental_uris": {"ios": "https://chi.lft.to/lastmile_qr_scan", "android": "https://chi.lft.to/lastmile_qr_scan"}, "name": "Desplaines St & Randolph St", "lat": 41.883703, "station_id": "a3a52df5-a135-11e9-9cda-0a87ae2ba916", "lon": -87.644238}, {"capacity": 19, "short_name": "22004", "rental_uris": {"ios": "https://chi.lft.to/lastmile_qr_scan", "android": "https://chi.lft.to/lastmile_qr_scan"}, "name": "Blackstone Ave & 59th St", "lat": 41.787877, "station_id": "1850866657089146912", "lon": -87.590461}, {"capacity": 11, "short_name": "583", "rental_uris": {"ios": "https://chi.lft.to/lastmile_qr_scan", "android": "https://chi.lft.to/lastmile_qr_scan"}, "name": "Stony Island Ave & 82nd St", "lat": 41.746559, "station_id": "a3b29fae-a135-11e9-9cda-0a87ae2ba916", "lon": -87.586005}, {"capacity": 15, "short_name": "TA1307000129", "rental_uris": {"ios": "https://chi.lft.to/lastmile_qr_scan", "android": "https://chi.lft.to/lastmile_qr_scan"}, "name": "State St & 35th St", "lat": 41.8310363140161, "station_id": "a3a75d8a-a135-11e9-9cda-0a87ae2ba916", "lon": -87.62679755687714}, {"capacity": 15, "short_name": "21380", "rental_uris": {"ios": "https://chi.lft.to/lastmile_qr_scan", "android": "https://chi.lft.to/lastmile_qr_scan"}, "name": "Fairfield Ave & 44th St", "lat": 41.813617, "station_id": "1934289944388426278", "lon": -87.6932272}, {"capacity": 15, "short_name": "15645", "rental_uris": {"ios": "https://chi.lft.to/lastmile_qr_scan", "android": "https://chi.lft.to/lastmile_qr_scan"}, "name": "Richmond St & Diversey Ave", "lat": 41.93190196886, "station_id": "a3b00b3a-a135-11e9-9cda-0a87ae2ba916", "lon": -87.7011951301}, {"capacity": 15, "short_name": "23180", "rental_uris": {"ios": "https://chi.lft.to/lastmile_qr_scan", "android": "https://chi.lft.to/lastmile_qr_scan"}, "name": "Cicero Ave & Wrightwood Ave", "lat": 41.9279057, "station_id": "1890605196211329420", "lon": -87.7467295}, {"capacity": 11, "short_name": "564", "rental_uris": {"ios": "https://chi.lft.to/lastmile_qr_scan", "android": "https://chi.lft.to/lastmile_qr_scan"}, "name": "Racine Ave & 65th St", "lat": 41.775393, "station_id": "a3b23cb8-a135-11e9-9cda-0a87ae2ba916", "lon": -87.654308}, {"capacity": 15, "short_name": "20208", "rental_uris": {"ios": "https://chi.lft.to/lastmile_qr_scan", "android": "https://chi.lft.to/lastmile_qr_scan"}, "name": "Major Taylor Trail & 124th St", "lat": 41.66869635332246, "station_id": "732c9f35-0c82-4128-acc3-2cf447298b1d", "lon": -87.63711333274841}, {"capacity": 15, "short_name": "24159", "rental_uris": {"ios": "https://chi.lft.to/lastmile_qr_scan", "android": "https://chi.lft.to/lastmile_qr_scan"}, "name": "Kedvale Ave & Peterson Ave", "lat": 41.9900762, "station_id": "1929967657204564894", "lon": -87.7317073}, {"capacity": 11, "short_name": "TA1307000161", "rental_uris": {"ios": "https://chi.lft.to/lastmile_qr_scan", "android": "https://chi.lft.to/lastmile_qr_scan"}, "name": "Halsted St & 37th St", "lat": 41.827059, "station_id": "a3a96aca-a135-11e9-9cda-0a87ae2ba916", "lon": -87.64572}, {"capacity": 15, "short_name": "24237", "rental_uris": {"ios": "https://chi.lft.to/lastmile_qr_scan", "android": "https://chi.lft.to/lastmile_qr_scan"}, "name": "Wood St & 33rd St", "lat": 41.83427, "station_id": "1958859639339458778", "lon": -87.6706}, {"capacity": 16, "short_name": "24409", "rental_uris": {"ios": "https://chi.lft.to/lastmile_qr_scan", "android": "https://chi.lft.to/lastmile_qr_scan"}, "name": "Indiana Ave & 133rd St", "lat": 41.6538, "station_id": "1978857650118994914", "lon": -87.61719}, {"capacity": 19, "short_name": "13073", "rental_uris": {"ios": "https://chi.lft.to/lastmile_qr_scan", "android": "https://chi.lft.to/lastmile_qr_scan"}, "name": "Ashland Ave & Lake St", "lat": 41.88592, "station_id": "a3a59ec3-a135-11e9-9cda-0a87ae2ba916", "lon": -87.66717}, {"capacity": 15, "short_name": "KA1504000097", "rental_uris": {"ios": "https://chi.lft.to/lastmile_qr_scan", "android": "https://chi.lft.to/lastmile_qr_scan"}, "name": "Drake Ave & Montrose Ave", "lat": 41.96115407569, "station_id": "a3af9a83-a135-11e9-9cda-0a87ae2ba916", "lon": -87.7165690733}, {"capacity": 15, "short_name": "21384", "rental_uris": {"ios": "https://chi.lft.to/lastmile_qr_scan", "android": "https://chi.lft.to/lastmile_qr_scan"}, "name": "Kedzie Ave & 52nd St", "lat": 41.79906, "station_id": "1936553212713581016", "lon": -87.70342}, {"capacity": 15, "short_name": "20103", "rental_uris": {"ios": "https://chi.lft.to/lastmile_qr_scan", "android": "https://chi.lft.to/lastmile_qr_scan"}, "name": "Prospect Sq & 91st St", "lat": 41.7282338, "station_id": "f0f9f5dc-3d3f-4a32-aa3e-b87566e44de9", "lon": -87.6675239}, {"capacity": 15, "short_name": "23110", "rental_uris": {"ios": "https://chi.lft.to/lastmile_qr_scan", "android": "https://chi.lft.to/lastmile_qr_scan"}, "name": "Keeler Ave & Carmen Ave", "lat": 41.974323, "station_id": "1882466626513795782", "lon": -87.7331}, {"capacity": 27, "short_name": "TA1307000120", "rental_uris": {"ios": "https://chi.lft.to/lastmile_qr_scan", "android": "https://chi.lft.to/lastmile_qr_scan"}, "name": "Green St & Madison St", "lat": 41.881859328038225, "station_id": "a3a79adb-a135-11e9-9cda-0a87ae2ba916", "lon": -87.64926373958588}, {"capacity": 15, "short_name": "TA1307000001", "rental_uris": {"ios": "https://chi.lft.to/lastmile_qr_scan", "android": "https://chi.lft.to/lastmile_qr_scan"}, "name": "Greenview Ave & Fullerton Ave", "lat": 41.92533, "station_id": "a3a76cb6-a135-11e9-9cda-0a87ae2ba916", "lon": -87.6658}, {"capacity": 15, "short_name": "21353", "rental_uris": {"ios": "https://chi.lft.to/lastmile_qr_scan", "android": "https://chi.lft.to/lastmile_qr_scan"}, "name": "Meade Ave & Diversey Ave", "lat": 41.93086, "station_id": "1942117929887056608", "lon": -87.77845}, {"capacity": 11, "short_name": "528", "rental_uris": {"ios": "https://chi.lft.to/lastmile_qr_scan", "android": "https://chi.lft.to/lastmile_qr_scan"}, "name": "Pulaski Rd & Lake St", "lat": 41.885409, "station_id": "a3b10a40-a135-11e9-9cda-0a87ae2ba916", "lon": -87.726491}, {"capacity": 15, "short_name": "13353", "rental_uris": {"ios": "https://chi.lft.to/lastmile_qr_scan", "android": "https://chi.lft.to/lastmile_qr_scan"}, "name": "Ada St & Washington Blvd", "lat": 41.88283, "station_id": "a3ac1607-a135-11e9-9cda-0a87ae2ba916", "lon": -87.661206}, {"capacity": 15, "short_name": "20121", "rental_uris": {"ios": "https://chi.lft.to/lastmile_qr_scan", "android": "https://chi.lft.to/lastmile_qr_scan"}, "name": "Loomis Blvd & 84th St", "lat": 41.741486528618054, "station_id": "e63300bd-4ca3-4255-adfd-522289d68b8a", "lon": -87.65841007232666}, {"capacity": 15, "short_name": "23119", "rental_uris": {"ios": "https://chi.lft.to/lastmile_qr_scan", "android": "https://chi.lft.to/lastmile_qr_scan"}, "name": "Francisco Ave & 85th St", "lat": 41.738902, "station_id": "1879436840905128284", "lon": -87.695518}, {"capacity": 19, "short_name": "13398", "rental_uris": {"ios": "https://chi.lft.to/lastmile_qr_scan", "android": "https://chi.lft.to/lastmile_qr_scan"}, "name": "Blackstone Ave & Hyde Park Blvd", "lat": 41.802562, "station_id": "a3a5a9d0-a135-11e9-9cda-0a87ae2ba916", "lon": -87.590368}, {"capacity": 15, "short_name": "13164", "rental_uris": {"ios": "https://chi.lft.to/lastmile_qr_scan", "android": "https://chi.lft.to/lastmile_qr_scan"}, "name": "Racine Ave & 18th St", "lat": 41.8583996, "station_id": "a3a3ace6-a135-11e9-9cda-0a87ae2ba916", "lon": -87.6564226}, {"capacity": 15, "short_name": "23129", "rental_uris": {"ios": "https://chi.lft.to/lastmile_qr_scan", "android": "https://chi.lft.to/lastmile_qr_scan"}, "name": "Mozart St & 79th St", "lat": 41.749702, "station_id": "1871992980799203880", "lon": -87.693917}, {"capacity": 15, "short_name": "24244", "rental_uris": {"ios": "https://chi.lft.to/lastmile_qr_scan", "android": "https://chi.lft.to/lastmile_qr_scan"}, "name": "California Ave & 41st St", "lat": 41.81867, "station_id": "1943244520961310788", "lon": -87.69441}, {"capacity": 31, "short_name": "TA1309000023", "rental_uris": {"ios": "https://chi.lft.to/lastmile_qr_scan", "android": "https://chi.lft.to/lastmile_qr_scan"}, "name": "Sheffield Ave & Wrightwood Ave", "lat": 41.928712, "station_id": "a3aa35a4-a135-11e9-9cda-0a87ae2ba916", "lon": -87.653833}, {"capacity": 15, "short_name": "15615", "rental_uris": {"ios": "https://chi.lft.to/lastmile_qr_scan", "android": "https://chi.lft.to/lastmile_qr_scan"}, "name": "Christiana Ave & Lawrence Ave", "lat": 41.96835449363, "station_id": "a3af8123-a135-11e9-9cda-0a87ae2ba916", "lon": -87.7118306675}, {"capacity": 16, "short_name": "24477", "rental_uris": {"ios": "https://chi.lft.to/lastmile_qr_scan", "android": "https://chi.lft.to/lastmile_qr_scan"}, "name": "Lynch Ave & Elston Ave", "lat": 41.98096, "station_id": "2021144286196005052", "lon": -87.76149}, {"capacity": 15, "short_name": "15631", "rental_uris": {"ios": "https://chi.lft.to/lastmile_qr_scan", "android": "https://chi.lft.to/lastmile_qr_scan"}, "name": "Troy St & Elston Ave", "lat": 41.94524356848, "station_id": "a3afd294-a135-11e9-9cda-0a87ae2ba916", "lon": -87.7066499009}, {"capacity": 19, "short_name": "13036", "rental_uris": {"ios": "https://chi.lft.to/lastmile_qr_scan", "android": "https://chi.lft.to/lastmile_qr_scan"}, "name": "Michigan Ave & Madison St", "lat": 41.882134, "station_id": "a3a795d7-a135-11e9-9cda-0a87ae2ba916", "lon": -87.625125}, {"capacity": 11, "short_name": "16991", "rental_uris": {"ios": "https://chi.lft.to/lastmile_qr_scan", "android": "https://chi.lft.to/lastmile_qr_scan"}, "name": "Milwaukee Ave & Cuyler Ave", "lat": 41.954468, "station_id": "a3b2be3a-a135-11e9-9cda-0a87ae2ba916", "lon": -87.749594}, {"capacity": 16, "short_name": "24360", "rental_uris": {"ios": "https://chi.lft.to/lastmile_qr_scan", "android": "https://chi.lft.to/lastmile_qr_scan"}, "name": "Princeton Ave & 95th St", "lat": 41.72175, "station_id": "1984107787514337392", "lon": -87.63075}, {"capacity": 15, "short_name": "KA1504000139", "rental_uris": {"ios": "https://chi.lft.to/lastmile_qr_scan", "android": "https://chi.lft.to/lastmile_qr_scan"}, "name": "Monticello Ave & Irving Park Rd", "lat": 41.95400483876, "station_id": "a3afb401-a135-11e9-9cda-0a87ae2ba916", "lon": -87.7191281797}, {"capacity": 11, "short_name": "KA1503000073", "rental_uris": {"ios": "https://chi.lft.to/lastmile_qr_scan", "android": "https://chi.lft.to/lastmile_qr_scan"}, "name": "MLK Jr Dr & 56th St", "lat": 41.79342945658, "station_id": "a3ad7636-a135-11e9-9cda-0a87ae2ba916", "lon": -87.6158532619}, {"capacity": 31, "short_name": "KA1503000071", "rental_uris": {"ios": "https://chi.lft.to/lastmile_qr_scan", "android": "https://chi.lft.to/lastmile_qr_scan"}, "name": "University Ave & 57th St", "lat": 41.791478, "station_id": "a3ad8072-a135-11e9-9cda-0a87ae2ba916", "lon": -87.599861}, {"capacity": 16, "short_name": "24225", "rental_uris": {"ios": "https://chi.lft.to/lastmile_qr_scan", "android": "https://chi.lft.to/lastmile_qr_scan"}, "name": "Avers Ave & 16th St", "lat": 41.85909, "station_id": "1984756450139626426", "lon": -87.72121}, {"capacity": 19, "short_name": "15575", "rental_uris": {"ios": "https://chi.lft.to/lastmile_qr_scan", "android": "https://chi.lft.to/lastmile_qr_scan"}, "name": "Broadway & Thorndale Ave", "lat": 41.98974251144, "station_id": "a3af2c5f-a135-11e9-9cda-0a87ae2ba916", "lon": -87.6601406209}, {"capacity": 19, "short_name": "24370", "rental_uris": {"ios": "https://chi.lft.to/lastmile_qr_scan", "android": "https://chi.lft.to/lastmile_qr_scan"}, "name": "Milwaukee Ave & Ainslie St", "lat": 41.96861, "station_id": "1969221526359528022", "lon": -87.76108}, {"capacity": 15, "short_name": "TA1307000005", "rental_uris": {"ios": "https://chi.lft.to/lastmile_qr_scan", "android": "https://chi.lft.to/lastmile_qr_scan"}, "name": "Indiana Ave & 26th St", "lat": 41.845687, "station_id": "a3a62fc9-a135-11e9-9cda-0a87ae2ba916", "lon": -87.622481}, {"capacity": 4, "short_name": "13208", "rental_uris": {"ios": "https://chi.lft.to/lastmile_qr_scan", "android": "https://chi.lft.to/lastmile_qr_scan"}, "name": "Burling St & Diversey Pkwy", "lat": 41.93314, "station_id": "2024842594057769234", "lon": -87.64776}, {"capacity": 16, "short_name": "24368", "rental_uris": {"ios": "https://chi.lft.to/lastmile_qr_scan", "android": "https://chi.lft.to/lastmile_qr_scan"}, "name": "Melvina Ave & Giddings Ave", "lat": 41.96648, "station_id": "2007796988006173238", "lon": -87.78202}, {"capacity": 15, "short_name": "24211", "rental_uris": {"ios": "https://chi.lft.to/lastmile_qr_scan", "android": "https://chi.lft.to/lastmile_qr_scan"}, "name": "Western Ave & Lake St", "lat": 41.88481, "station_id": "1967727360320698512", "lon": -87.68668}, {"capacity": 19, "short_name": "13058", "rental_uris": {"ios": "https://chi.lft.to/lastmile_qr_scan", "android": "https://chi.lft.to/lastmile_qr_scan"}, "name": "Dayton St & North Ave", "lat": 41.9105780349, "station_id": "a3a497b6-a135-11e9-9cda-0a87ae2ba916", "lon": -87.6494219288}, {"capacity": 15, "short_name": "23190", "rental_uris": {"ios": "https://chi.lft.to/lastmile_qr_scan", "android": "https://chi.lft.to/lastmile_qr_scan"}, "name": "Karlov Ave & Armitage Ave", "lat": 41.91748, "station_id": "1867616662773391950", "lon": -87.728952}, {"capacity": 15, "short_name": "24158", "rental_uris": {"ios": "https://chi.lft.to/lastmile_qr_scan", "android": "https://chi.lft.to/lastmile_qr_scan"}, "name": "Bernard St & Peterson Ave", "lat": 41.9904393, "station_id": "1929538112769137066", "lon": -87.715236}, {"capacity": 47, "short_name": "TA1309000066", "rental_uris": {"ios": "https://chi.lft.to/lastmile_qr_scan", "android": "https://chi.lft.to/lastmile_qr_scan"}, "name": "Ravenswood Ave & Lawrence Ave", "lat": 41.968445, "station_id": "a3ab9119-a135-11e9-9cda-0a87ae2ba916", "lon": -87.674226}, {"capacity": 11, "short_name": "KA1503000025", "rental_uris": {"ios": "https://chi.lft.to/lastmile_qr_scan", "android": "https://chi.lft.to/lastmile_qr_scan"}, "name": "Wentworth Ave & 63rd St", "lat": 41.78007963264, "station_id": "a3acdae2-a135-11e9-9cda-0a87ae2ba916", "lon": -87.6297463052}, {"capacity": 15, "short_name": "15648", "rental_uris": {"ios": "https://chi.lft.to/lastmile_qr_scan", "android": "https://chi.lft.to/lastmile_qr_scan"}, "name": "Campbell Ave & Fullerton Ave", "lat": 41.92463247165, "station_id": "a3b01a86-a135-11e9-9cda-0a87ae2ba916", "lon": -87.6893070063}, {"capacity": 15, "short_name": "13134", "rental_uris": {"ios": "https://chi.lft.to/lastmile_qr_scan", "android": "https://chi.lft.to/lastmile_qr_scan"}, "name": "Damen Ave & Madison St", "lat": 41.88137, "station_id": "a3a7f0ba-a135-11e9-9cda-0a87ae2ba916", "lon": -87.67493}, {"capacity": 15, "short_name": "24273", "rental_uris": {"ios": "https://chi.lft.to/lastmile_qr_scan", "android": "https://chi.lft.to/lastmile_qr_scan"}, "name": "Kedzie Ave & 60th St", "lat": 41.78458, "station_id": "1963671811736140038", "lon": -87.70319}, {"capacity": 15, "short_name": "21378", "rental_uris": {"ios": "https://chi.lft.to/lastmile_qr_scan", "android": "https://chi.lft.to/lastmile_qr_scan"}, "name": "Nordica Ave & Medill Ave", "lat": 41.92227, "station_id": "1955905507044284968", "lon": -87.80202}, {"capacity": 15, "short_name": "13434", "rental_uris": {"ios": "https://chi.lft.to/lastmile_qr_scan", "android": "https://chi.lft.to/lastmile_qr_scan"}, "name": "Ashland Ave & Grand Ave", "lat": 41.891072, "station_id": "a3a9b1d7-a135-11e9-9cda-0a87ae2ba916", "lon": -87.666611}, {"capacity": 15, "short_name": "KA1504000148", "rental_uris": {"ios": "https://chi.lft.to/lastmile_qr_scan", "android": "https://chi.lft.to/lastmile_qr_scan"}, "name": "Clark St & Elmdale Ave", "lat": 41.990860448125574, "station_id": "a3af2737-a135-11e9-9cda-0a87ae2ba916", "lon": -87.66972362995148}, {"capacity": 15, "short_name": "18062", "rental_uris": {"ios": "https://chi.lft.to/lastmile_qr_scan", "android": "https://chi.lft.to/lastmile_qr_scan"}, "name": "Aberdeen St & Randolph St", "lat": 41.884114, "station_id": "a3b3634c-a135-11e9-9cda-0a87ae2ba916", "lon": -87.654264}, {"capacity": 15, "short_name": "TA1309000042", "rental_uris": {"ios": "https://chi.lft.to/lastmile_qr_scan", "android": "https://chi.lft.to/lastmile_qr_scan"}, "name": "Lincoln Ave & Melrose St", "lat": 41.9406, "station_id": "a3a5de24-a135-11e9-9cda-0a87ae2ba916", "lon": -87.669435}, {"capacity": 15, "short_name": "TA1305000037", "rental_uris": {"ios": "https://chi.lft.to/lastmile_qr_scan", "android": "https://chi.lft.to/lastmile_qr_scan"}, "name": "Paulina Ave & North Ave", "lat": 41.90985465216731, "station_id": "a3a3b202-a135-11e9-9cda-0a87ae2ba916", "lon": -87.66993016004562}, {"capacity": 19, "short_name": "TA1307000121", "rental_uris": {"ios": "https://chi.lft.to/lastmile_qr_scan", "android": "https://chi.lft.to/lastmile_qr_scan"}, "name": "Halsted St & Polk St", "lat": 41.87184, "station_id": "a3a565b1-a135-11e9-9cda-0a87ae2ba916", "lon": -87.64664}, {"capacity": 19, "short_name": "15529", "rental_uris": {"ios": "https://chi.lft.to/lastmile_qr_scan", "android": "https://chi.lft.to/lastmile_qr_scan"}, "name": "Mies van der Rohe Way & Chestnut St", "lat": 41.8985866514, "station_id": "a3a62566-a135-11e9-9cda-0a87ae2ba916", "lon": -87.6219152258}, {"capacity": 16, "short_name": "24407", "rental_uris": {"ios": "https://chi.lft.to/lastmile_qr_scan", "android": "https://chi.lft.to/lastmile_qr_scan"}, "name": "Baltimore Ave & 133rd St", "lat": 41.65349, "station_id": "1975534406854476324", "lon": -87.54703}, {"capacity": 15, "short_name": "21331", "rental_uris": {"ios": "https://chi.lft.to/lastmile_qr_scan", "android": "https://chi.lft.to/lastmile_qr_scan"}, "name": "21st St & Pulaski Rd", "lat": 41.85344207588209, "station_id": "1931696364106218226", "lon": -87.72462849736986}, {"capacity": 15, "short_name": "13080", "rental_uris": {"ios": "https://chi.lft.to/lastmile_qr_scan", "android": "https://chi.lft.to/lastmile_qr_scan"}, "name": "Hermitage Ave & Polk St", "lat": 41.871514, "station_id": "a3a965b2-a135-11e9-9cda-0a87ae2ba916", "lon": -87.669886}, {"capacity": 31, "short_name": "KA1503000041", "rental_uris": {"ios": "https://chi.lft.to/lastmile_qr_scan", "android": "https://chi.lft.to/lastmile_qr_scan"}, "name": "McClurg Ct & Erie St", "lat": 41.894503, "station_id": "a3a614ad-a135-11e9-9cda-0a87ae2ba916", "lon": -87.617854}, {"capacity": 16, "short_name": "24417", "rental_uris": {"ios": "https://chi.lft.to/lastmile_qr_scan", "android": "https://chi.lft.to/lastmile_qr_scan"}, "name": "State St & 111th St", "lat": 41.69251, "station_id": "1991508150894459550", "lon": -87.62287}, {"capacity": 23, "short_name": "KA1504000171", "rental_uris": {"ios": "https://chi.lft.to/lastmile_qr_scan", "android": "https://chi.lft.to/lastmile_qr_scan"}, "name": "Marine Dr & Ainslie St", "lat": 41.9716, "station_id": "a3af52bc-a135-11e9-9cda-0a87ae2ba916", "lon": -87.650154}, {"capacity": 19, "short_name": "KA1504000146", "rental_uris": {"ios": "https://chi.lft.to/lastmile_qr_scan", "android": "https://chi.lft.to/lastmile_qr_scan"}, "name": "Clark St & Berwyn Ave", "lat": 41.978030622486564, "station_id": "a3af460f-a135-11e9-9cda-0a87ae2ba916", "lon": -87.66856491565704}, {"capacity": 15, "short_name": "RP-007", "rental_uris": {"ios": "https://chi.lft.to/lastmile_qr_scan", "android": "https://chi.lft.to/lastmile_qr_scan"}, "name": "Clark St & Touhy Ave", "lat": 42.01256011541, "station_id": "a3ac3b03-a135-11e9-9cda-0a87ae2ba916", "lon": -87.6743671152}, {"capacity": 15, "short_name": "655", "rental_uris": {"ios": "https://chi.lft.to/lastmile_qr_scan", "android": "https://chi.lft.to/lastmile_qr_scan"}, "name": "Hoyne Ave & Balmoral Ave", "lat": 41.979851, "station_id": "a3b477ac-a135-11e9-9cda-0a87ae2ba916", "lon": -87.681932}, {"capacity": 31, "short_name": "TA1306000013", "rental_uris": {"ios": "https://chi.lft.to/lastmile_qr_scan", "android": "https://chi.lft.to/lastmile_qr_scan"}, "name": "New St & Illinois St", "lat": 41.890847040623804, "station_id": "a3a3e67b-a135-11e9-9cda-0a87ae2ba916", "lon": -87.61861681938171}, {"capacity": 11, "short_name": "530", "rental_uris": {"ios": "https://chi.lft.to/lastmile_qr_scan", "android": "https://chi.lft.to/lastmile_qr_scan"}, "name": "Laramie Ave & Kinzie St", "lat": 41.887832, "station_id": "a3b11480-a135-11e9-9cda-0a87ae2ba916", "lon": -87.755527}, {"capacity": 11, "short_name": "561", "rental_uris": {"ios": "https://chi.lft.to/lastmile_qr_scan", "android": "https://chi.lft.to/lastmile_qr_scan"}, "name": "Damen Ave & 59th St", "lat": 41.785861065132, "station_id": "a3b22d3d-a135-11e9-9cda-0a87ae2ba916", "lon": -87.67414391040802}, {"capacity": 15, "short_name": "21349", "rental_uris": {"ios": "https://chi.lft.to/lastmile_qr_scan", "android": "https://chi.lft.to/lastmile_qr_scan"}, "name": "Spaulding Ave & 63rd", "lat": 41.7791655, "station_id": "1934290380966283526", "lon": -87.7056392}, {"capacity": 15, "short_name": "21334", "rental_uris": {"ios": "https://chi.lft.to/lastmile_qr_scan", "android": "https://chi.lft.to/lastmile_qr_scan"}, "name": "Lawndale Ave & 30th St", "lat": 41.8389124, "station_id": "1933998036428004326", "lon": -87.7168955}, {"capacity": 15, "short_name": "23187", "rental_uris": {"ios": "https://chi.lft.to/lastmile_qr_scan", "android": "https://chi.lft.to/lastmile_qr_scan"}, "name": "Lockwood Ave & Grand Ave", "lat": 41.9175941, "station_id": "1929883678185797908", "lon": -87.7584143}, {"capacity": 24, "short_name": "13235", "rental_uris": {"ios": "https://chi.lft.to/lastmile_qr_scan", "android": "https://chi.lft.to/lastmile_qr_scan"}, "name": "Southport Ave & Waveland Ave", "lat": 41.948226, "station_id": "a3a82c6c-a135-11e9-9cda-0a87ae2ba916", "lon": -87.6640712}, {"capacity": 15, "short_name": "20224", "rental_uris": {"ios": "https://chi.lft.to/lastmile_qr_scan", "android": "https://chi.lft.to/lastmile_qr_scan"}, "name": "Calumet Park", "lat": 41.71370983035615, "station_id": "391d5cd8-c87c-42f8-94df-823f94284005", "lon": -87.53084421157837}, {"capacity": 15, "short_name": "20116", "rental_uris": {"ios": "https://chi.lft.to/lastmile_qr_scan", "android": "https://chi.lft.to/lastmile_qr_scan"}, "name": "Dauphin Ave & 87th St", "lat": 41.73648, "station_id": "625e37ea-24ea-4f13-9a54-6322466ec521", "lon": -87.601252}, {"capacity": 15, "short_name": "23131", "rental_uris": {"ios": "https://chi.lft.to/lastmile_qr_scan", "android": "https://chi.lft.to/lastmile_qr_scan"}, "name": "Western Ave & 79th St", "lat": 41.750843, "station_id": "1871991855517771832", "lon": -87.682701}, {"capacity": 15, "short_name": "20127", "rental_uris": {"ios": "https://chi.lft.to/lastmile_qr_scan", "android": "https://chi.lft.to/lastmile_qr_scan"}, "name": "Halsted St & 111th St", "lat": 41.69226255589166, "station_id": "a77136ee-060b-433b-88d0-ec74af1ef7ad", "lon": -87.64261186122894}, {"capacity": 15, "short_name": "13290", "rental_uris": {"ios": "https://chi.lft.to/lastmile_qr_scan", "android": "https://chi.lft.to/lastmile_qr_scan"}, "name": "Noble St & Milwaukee Ave", "lat": 41.9007, "station_id": "a3a3f5e9-a135-11e9-9cda-0a87ae2ba916", "lon": -87.662607}, {"capacity": 23, "short_name": "20106", "rental_uris": {"ios": "https://chi.lft.to/lastmile_qr_scan", "android": "https://chi.lft.to/lastmile_qr_scan"}, "name": "Chicago State University", "lat": 41.71896342165455, "station_id": "9e5ce0b6-198f-48fa-9363-64ab5ec2b222", "lon": -87.60829567909241}, {"capacity": 11, "short_name": "654", "rental_uris": {"ios": "https://chi.lft.to/lastmile_qr_scan", "android": "https://chi.lft.to/lastmile_qr_scan"}, "name": "Racine Ave & Washington Blvd", "lat": 41.883073, "station_id": "a3b4728f-a135-11e9-9cda-0a87ae2ba916", "lon": -87.656952}, {"capacity": 15, "short_name": "23112", "rental_uris": {"ios": "https://chi.lft.to/lastmile_qr_scan", "android": "https://chi.lft.to/lastmile_qr_scan"}, "name": "St Louis Ave & Foster Ave", "lat": 41.9759837, "station_id": "1926982189560422428", "lon": -87.7159844}, {"capacity": 15, "short_name": "21375", "rental_uris": {"ios": "https://chi.lft.to/lastmile_qr_scan", "android": "https://chi.lft.to/lastmile_qr_scan"}, "name": "Long Ave & North Ave", "lat": 41.9092147, "station_id": "1927677528601722888", "lon": -87.7609189}, {"capacity": 11, "short_name": "23166", "rental_uris": {"ios": "https://chi.lft.to/lastmile_qr_scan", "android": "https://chi.lft.to/lastmile_qr_scan"}, "name": "Major Ave & Addison St", "lat": 41.9458348, "station_id": "1929121887488481484", "lon": -87.7691848}, {"capacity": 15, "short_name": "TA1307000115", "rental_uris": {"ios": "https://chi.lft.to/lastmile_qr_scan", "android": "https://chi.lft.to/lastmile_qr_scan"}, "name": "Clybourn Ave & Division St", "lat": 41.904613, "station_id": "a3a6054c-a135-11e9-9cda-0a87ae2ba916", "lon": -87.640552}, {"capacity": 15, "short_name": "596", "rental_uris": {"ios": "https://chi.lft.to/lastmile_qr_scan", "android": "https://chi.lft.to/lastmile_qr_scan"}, "name": "Benson Ave & Church St", "lat": 42.048214, "region_id": "35", "station_id": "a3b2e20c-a135-11e9-9cda-0a87ae2ba916", "lon": -87.683485}, {"capacity": 11, "short_name": "13249", "rental_uris": {"ios": "https://chi.lft.to/lastmile_qr_scan", "android": "https://chi.lft.to/lastmile_qr_scan"}, "name": "Ashland Ave & Belle Plaine Ave", "lat": 41.956057, "station_id": "a3a88a6d-a135-11e9-9cda-0a87ae2ba916", "lon": -87.668835}, {"capacity": 11, "short_name": "13258", "rental_uris": {"ios": "https://chi.lft.to/lastmile_qr_scan", "android": "https://chi.lft.to/lastmile_qr_scan"}, "name": "California Ave & North Ave", "lat": 41.910044, "station_id": "a3a9acc5-a135-11e9-9cda-0a87ae2ba916", "lon": -87.697167}, {"capacity": 23, "short_name": "TA1307000127", "rental_uris": {"ios": "https://chi.lft.to/lastmile_qr_scan", "android": "https://chi.lft.to/lastmile_qr_scan"}, "name": "Clark St & Grace St", "lat": 41.95078, "station_id": "a3a6fcac-a135-11e9-9cda-0a87ae2ba916", "lon": -87.659172}, {"capacity": 15, "short_name": "13191", "rental_uris": {"ios": "https://chi.lft.to/lastmile_qr_scan", "android": "https://chi.lft.to/lastmile_qr_scan"}, "name": "Sedgwick St & Webster Ave", "lat": 41.922167, "station_id": "a3a61a0b-a135-11e9-9cda-0a87ae2ba916", "lon": -87.638888}, {"capacity": 11, "short_name": "653B", "rental_uris": {"ios": "https://chi.lft.to/lastmile_qr_scan", "android": "https://chi.lft.to/lastmile_qr_scan"}, "name": "Stony Island Ave & 63rd St", "lat": 41.780506, "station_id": "1754781885939323186", "lon": -87.586853}, {"capacity": 15, "short_name": "21317", "rental_uris": {"ios": "https://chi.lft.to/lastmile_qr_scan", "android": "https://chi.lft.to/lastmile_qr_scan"}, "name": "Long Ave & Belmont Ave", "lat": 41.93833, "station_id": "1936582264492460636", "lon": -87.76166}, {"capacity": 16, "short_name": "24476", "rental_uris": {"ios": "https://chi.lft.to/lastmile_qr_scan", "android": "https://chi.lft.to/lastmile_qr_scan"}, "name": "Farragut Ave & Central Ave", "lat": 41.97666, "station_id": "2020810253003180058", "lon": -87.76823}, {"capacity": 19, "short_name": "13016", "rental_uris": {"ios": "https://chi.lft.to/lastmile_qr_scan", "android": "https://chi.lft.to/lastmile_qr_scan"}, "name": "St. Clair St & Erie St", "lat": 41.89434513742426, "station_id": "a3a7dc8c-a135-11e9-9cda-0a87ae2ba916", "lon": -87.62279838323593}, {"capacity": 15, "short_name": "TA1309000059", "rental_uris": {"ios": "https://chi.lft.to/lastmile_qr_scan", "android": "https://chi.lft.to/lastmile_qr_scan"}, "name": "Racine Ave & Wrightwood Ave", "lat": 41.928887, "station_id": "a3ab8bee-a135-11e9-9cda-0a87ae2ba916", "lon": -87.658971}, {"capacity": 11, "short_name": "KA1503000075", "rental_uris": {"ios": "https://chi.lft.to/lastmile_qr_scan", "android": "https://chi.lft.to/lastmile_qr_scan"}, "name": "DuSable Museum", "lat": 41.79156801058, "station_id": "a3ad7b51-a135-11e9-9cda-0a87ae2ba916", "lon": -87.6078521774}, {"capacity": 19, "short_name": "TA1307000140", "rental_uris": {"ios": "https://chi.lft.to/lastmile_qr_scan", "android": "https://chi.lft.to/lastmile_qr_scan"}, "name": "Western Ave & Leland Ave", "lat": 41.966399801840986, "station_id": "a3a866a5-a135-11e9-9cda-0a87ae2ba916", "lon": -87.68870428204536}, {"capacity": 19, "short_name": "13158", "rental_uris": {"ios": "https://chi.lft.to/lastmile_qr_scan", "android": "https://chi.lft.to/lastmile_qr_scan"}, "name": "Peoria St & Jackson Blvd", "lat": 41.8776415962753, "station_id": "a3a5f0b8-a135-11e9-9cda-0a87ae2ba916", "lon": -87.64961779117584}, {"capacity": 35, "short_name": "TA1307000111", "rental_uris": {"ios": "https://chi.lft.to/lastmile_qr_scan", "android": "https://chi.lft.to/lastmile_qr_scan"}, "name": "Franklin St & Lake St", "lat": 41.885837, "station_id": "a3a6f7a5-a135-11e9-9cda-0a87ae2ba916", "lon": -87.6355}, {"capacity": 11, "short_name": "22002", "rental_uris": {"ios": "https://chi.lft.to/lastmile_qr_scan", "android": "https://chi.lft.to/lastmile_qr_scan"}, "name": "Woodlawn Ave & 58th St", "lat": 41.789381, "station_id": "1850867138125484782", "lon": -87.596479}, {"capacity": 23, "short_name": "20205", "rental_uris": {"ios": "https://chi.lft.to/lastmile_qr_scan", "android": "https://chi.lft.to/lastmile_qr_scan"}, "name": "Western Ave & 111th St", "lat": 41.691211034981045, "station_id": "b43a9764-2b1d-4fa0-a13f-7e05eddc7fcd", "lon": -87.68129736185074}, {"capacity": 23, "short_name": "15545", "rental_uris": {"ios": "https://chi.lft.to/lastmile_qr_scan", "android": "https://chi.lft.to/lastmile_qr_scan"}, "name": "Burnham Harbor", "lat": 41.85741178707404, "station_id": "a3a378ca-a135-11e9-9cda-0a87ae2ba916", "lon": -87.61379152536392}, {"capacity": 11, "short_name": "13288", "rental_uris": {"ios": "https://chi.lft.to/lastmile_qr_scan", "android": "https://chi.lft.to/lastmile_qr_scan"}, "name": "Damen Ave & Charleston St", "lat": 41.920082, "station_id": "a3aa5ed1-a135-11e9-9cda-0a87ae2ba916", "lon": -87.677855}, {"capacity": 19, "short_name": "KA1503000004", "rental_uris": {"ios": "https://chi.lft.to/lastmile_qr_scan", "android": "https://chi.lft.to/lastmile_qr_scan"}, "name": "Lake Park Ave & 35th St", "lat": 41.83127423549, "station_id": "a3ad2843-a135-11e9-9cda-0a87ae2ba916", "lon": -87.6087991946}, {"capacity": 15, "short_name": "15445", "rental_uris": {"ios": "https://chi.lft.to/lastmile_qr_scan", "android": "https://chi.lft.to/lastmile_qr_scan"}, "name": "Wentworth Ave & 33rd St", "lat": 41.83452988563, "station_id": "a3ad1e12-a135-11e9-9cda-0a87ae2ba916", "lon": -87.6318229814}, {"capacity": 27, "short_name": "TA1305000030", "rental_uris": {"ios": "https://chi.lft.to/lastmile_qr_scan", "android": "https://chi.lft.to/lastmile_qr_scan"}, "name": "Wells St & Randolph St", "lat": 41.884295, "station_id": "a3a46896-a135-11e9-9cda-0a87ae2ba916", "lon": -87.633963}, {"capacity": 15, "short_name": "KA1503000069", "rental_uris": {"ios": "https://chi.lft.to/lastmile_qr_scan", "android": "https://chi.lft.to/lastmile_qr_scan"}, "name": "Dorchester Ave & 49th St", "lat": 41.805772, "station_id": "a3ad5c90-a135-11e9-9cda-0a87ae2ba916", "lon": -87.592464}, {"capacity": 15, "short_name": "20243", "rental_uris": {"ios": "https://chi.lft.to/lastmile_qr_scan", "android": "https://chi.lft.to/lastmile_qr_scan"}, "name": "Michigan Ave & 114th St", "lat": 41.68701479467118, "station_id": "a065d29d-a081-47f4-8d0f-9a572f6085fe", "lon": -87.62105226516724}, {"capacity": 15, "short_name": "15655", "rental_uris": {"ios": "https://chi.lft.to/lastmile_qr_scan", "android": "https://chi.lft.to/lastmile_qr_scan"}, "name": "Albany Ave & Bloomingdale Ave", "lat": 41.91402671273, "station_id": "a3b0bd42-a135-11e9-9cda-0a87ae2ba916", "lon": -87.705126462}, {"capacity": 15, "short_name": "24250", "rental_uris": {"ios": "https://chi.lft.to/lastmile_qr_scan", "android": "https://chi.lft.to/lastmile_qr_scan"}, "name": "Rockwell St & 47th St", "lat": 41.80853, "station_id": "1989626448622643348", "lon": -87.68942}, {"capacity": 15, "short_name": "13163", "rental_uris": {"ios": "https://chi.lft.to/lastmile_qr_scan", "android": "https://chi.lft.to/lastmile_qr_scan"}, "name": "Morgan St & 18th St", "lat": 41.858086, "station_id": "a3a3a7b4-a135-11e9-9cda-0a87ae2ba916", "lon": -87.651073}, {"capacity": 15, "short_name": "23121", "rental_uris": {"ios": "https://chi.lft.to/lastmile_qr_scan", "android": "https://chi.lft.to/lastmile_qr_scan"}, "name": "Damen Ave & 87th St", "lat": 41.736044, "station_id": "1872721263815561908", "lon": -87.672861}, {"capacity": 15, "short_name": "21357", "rental_uris": {"ios": "https://chi.lft.to/lastmile_qr_scan", "android": "https://chi.lft.to/lastmile_qr_scan"}, "name": "Lamon Ave & Armitage Ave", "lat": 41.91676, "station_id": "1871990322214447924", "lon": -87.749458}, {"capacity": 15, "short_name": "20212", "rental_uris": {"ios": "https://chi.lft.to/lastmile_qr_scan", "android": "https://chi.lft.to/lastmile_qr_scan"}, "name": "Altgeld Gardens", "lat": 41.656665529673724, "station_id": "6fd280b0-74de-4a89-947d-3be40afa079c", "lon": -87.59880065917969}, {"capacity": 15, "short_name": "KA1504000093", "rental_uris": {"ios": "https://chi.lft.to/lastmile_qr_scan", "android": "https://chi.lft.to/lastmile_qr_scan"}, "name": "Rockwell St & Eastwood Ave", "lat": 41.96590013976, "station_id": "a3af956e-a135-11e9-9cda-0a87ae2ba916", "lon": -87.6936384935}, {"capacity": 15, "short_name": "13294", "rental_uris": {"ios": "https://chi.lft.to/lastmile_qr_scan", "android": "https://chi.lft.to/lastmile_qr_scan"}, "name": "Greenview Ave & Diversey Pkwy", "lat": 41.93258963429789, "station_id": "a3aa91f4-a135-11e9-9cda-0a87ae2ba916", "lon": -87.66593635082245}, {"capacity": 15, "short_name": "13084", "rental_uris": {"ios": "https://chi.lft.to/lastmile_qr_scan", "android": "https://chi.lft.to/lastmile_qr_scan"}, "name": "California Ave & Milwaukee Ave", "lat": 41.922695, "station_id": "a3a5b496-a135-11e9-9cda-0a87ae2ba916", "lon": -87.697153}, {"capacity": 15, "short_name": "13257", "rental_uris": {"ios": "https://chi.lft.to/lastmile_qr_scan", "android": "https://chi.lft.to/lastmile_qr_scan"}, "name": "Campbell Ave & North Ave", "lat": 41.910535, "station_id": "a3a6e359-a135-11e9-9cda-0a87ae2ba916", "lon": -87.689556}, {"capacity": 15, "short_name": "15442", "rental_uris": {"ios": "https://chi.lft.to/lastmile_qr_scan", "android": "https://chi.lft.to/lastmile_qr_scan"}, "name": "Ashland Ave & Archer Ave", "lat": 41.83920868403, "station_id": "a3ac83bc-a135-11e9-9cda-0a87ae2ba916", "lon": -87.6656098589}, {"capacity": 15, "short_name": "523", "rental_uris": {"ios": "https://chi.lft.to/lastmile_qr_scan", "android": "https://chi.lft.to/lastmile_qr_scan"}, "name": "Eastlake Ter & Howard St", "lat": 42.01920250193227, "station_id": "a3b0f0b6-a135-11e9-9cda-0a87ae2ba916", "lon": -87.66430288553238}, {"capacity": 11, "short_name": "573", "rental_uris": {"ios": "https://chi.lft.to/lastmile_qr_scan", "android": "https://chi.lft.to/lastmile_qr_scan"}, "name": "State St & 79th St", "lat": 41.750794, "station_id": "a3b26acf-a135-11e9-9cda-0a87ae2ba916", "lon": -87.624424}, {"capacity": 11, "short_name": "24149", "rental_uris": {"ios": "https://chi.lft.to/lastmile_qr_scan", "android": "https://chi.lft.to/lastmile_qr_scan"}, "name": "Sacramento Ave & Lunt Ave", "lat": 42.0082, "station_id": "1936566008041245278", "lon": -87.70461}, {"capacity": 15, "short_name": "13068", "rental_uris": {"ios": "https://chi.lft.to/lastmile_qr_scan", "android": "https://chi.lft.to/lastmile_qr_scan"}, "name": "Western Ave & Winnebago Ave", "lat": 41.91552, "station_id": "a3a58ee0-a135-11e9-9cda-0a87ae2ba916", "lon": -87.687022}, {"capacity": 15, "short_name": "23143", "rental_uris": {"ios": "https://chi.lft.to/lastmile_qr_scan", "android": "https://chi.lft.to/lastmile_qr_scan"}, "name": "Kedzie Ave & 66th Pl", "lat": 41.772584, "station_id": "1859717449875884116", "lon": -87.703007}, {"capacity": 11, "short_name": "16940", "rental_uris": {"ios": "https://chi.lft.to/lastmile_qr_scan", "android": "https://chi.lft.to/lastmile_qr_scan"}, "name": "Ashland Ave & 50th St", "lat": 41.803023, "station_id": "a3b20e8a-a135-11e9-9cda-0a87ae2ba916", "lon": -87.664699}, {"capacity": 15, "short_name": "TA1309000030", "rental_uris": {"ios": "https://chi.lft.to/lastmile_qr_scan", "android": "https://chi.lft.to/lastmile_qr_scan"}, "name": "Southport Ave & Clybourn Ave", "lat": 41.9215759, "station_id": "a3aa4f80-a135-11e9-9cda-0a87ae2ba916", "lon": -87.6664335}, {"capacity": 27, "short_name": "15664", "rental_uris": {"ios": "https://chi.lft.to/lastmile_qr_scan", "android": "https://chi.lft.to/lastmile_qr_scan"}, "name": "Artesian Ave & Hubbard St", "lat": 41.8895, "station_id": "a3aca790-a135-11e9-9cda-0a87ae2ba916", "lon": -87.688257}, {"capacity": 15, "short_name": "KA1503000068", "rental_uris": {"ios": "https://chi.lft.to/lastmile_qr_scan", "android": "https://chi.lft.to/lastmile_qr_scan"}, "name": "Leavitt St & Archer Ave", "lat": 41.82879201994, "station_id": "a3a39301-a135-11e9-9cda-0a87ae2ba916", "lon": -87.6806044594}, {"capacity": 19, "short_name": "TA1307000164", "rental_uris": {"ios": "https://chi.lft.to/lastmile_qr_scan", "android": "https://chi.lft.to/lastmile_qr_scan"}, "name": "Woodlawn Ave & 55th St", "lat": 41.795264, "station_id": "a3a89488-a135-11e9-9cda-0a87ae2ba916", "lon": -87.596471}, {"capacity": 23, "short_name": "TA1305000002", "rental_uris": {"ios": "https://chi.lft.to/lastmile_qr_scan", "android": "https://chi.lft.to/lastmile_qr_scan"}, "name": "Wabash Ave & Roosevelt Rd", "lat": 41.867227, "station_id": "a3a49288-a135-11e9-9cda-0a87ae2ba916", "lon": -87.625961}, {"capacity": 19, "short_name": "TA1308000009", "rental_uris": {"ios": "https://chi.lft.to/lastmile_qr_scan", "android": "https://chi.lft.to/lastmile_qr_scan"}, "name": "Shore Dr & 55th St", "lat": 41.795212, "station_id": "a3a88f84-a135-11e9-9cda-0a87ae2ba916", "lon": -87.580715}, {"capacity": 4, "short_name": "PI00002", "rental_uris": {"ios": "https://chi.lft.to/lastmile_qr_scan", "android": "https://chi.lft.to/lastmile_qr_scan"}, "name": "Streeter Dr/Grand Ave", "lat": 41.892401, "station_id": "1866476559603607834", "lon": -87.612388}, {"capacity": 15, "short_name": "23136", "rental_uris": {"ios": "https://chi.lft.to/lastmile_qr_scan", "android": "https://chi.lft.to/lastmile_qr_scan"}, "name": "Kedzie Ave & 73rd St", "lat": 41.760703, "station_id": "1869052846885132442", "lon": -87.702292}, {"capacity": 15, "short_name": "20237", "rental_uris": {"ios": "https://chi.lft.to/lastmile_qr_scan", "android": "https://chi.lft.to/lastmile_qr_scan"}, "name": "Yates Blvd & 93rd St", "lat": 41.726166390245105, "station_id": "1e7e4cf3-a16b-4cb7-9ead-fdd71e07ea77", "lon": -87.5662761926651}, {"capacity": 15, "short_name": "24332", "rental_uris": {"ios": "https://chi.lft.to/lastmile_qr_scan", "android": "https://chi.lft.to/lastmile_qr_scan"}, "name": "Lavergne Ave & Diversey Ave", "lat": 41.93128, "station_id": "1970390432459950744", "lon": -87.75141}, {"capacity": 15, "short_name": "13081", "rental_uris": {"ios": "https://chi.lft.to/lastmile_qr_scan", "android": "https://chi.lft.to/lastmile_qr_scan"}, "name": "Ogden Ave & Congress Pkwy", "lat": 41.87501, "station_id": "a3a5af44-a135-11e9-9cda-0a87ae2ba916", "lon": -87.67328}, {"capacity": 15, "short_name": "24246", "rental_uris": {"ios": "https://chi.lft.to/lastmile_qr_scan", "android": "https://chi.lft.to/lastmile_qr_scan"}, "name": "Archer Ave & Homan Ave", "lat": 41.81153, "station_id": "1939906971867155378", "lon": -87.70885}, {"capacity": 15, "short_name": "23107", "rental_uris": {"ios": "https://chi.lft.to/lastmile_qr_scan", "android": "https://chi.lft.to/lastmile_qr_scan"}, "name": "Karlov Ave & Lawrence Ave", "lat": 41.967947, "station_id": "1867617341378224632", "lon": -87.730409}, {"capacity": 19, "short_name": "KA1503000007", "rental_uris": {"ios": "https://chi.lft.to/lastmile_qr_scan", "android": "https://chi.lft.to/lastmile_qr_scan"}, "name": "Cornell Ave & Hyde Park Blvd", "lat": 41.802406, "station_id": "a3ad61c2-a135-11e9-9cda-0a87ae2ba916", "lon": -87.586924}, {"capacity": 43, "short_name": "13022", "rental_uris": {"ios": "https://chi.lft.to/lastmile_qr_scan", "android": "https://chi.lft.to/lastmile_qr_scan"}, "name": "Streeter Dr & Grand Ave", "lat": 41.892278, "station_id": "a3a41526-a135-11e9-9cda-0a87ae2ba916", "lon": -87.612043}, {"capacity": 15, "short_name": "600", "rental_uris": {"ios": "https://chi.lft.to/lastmile_qr_scan", "android": "https://chi.lft.to/lastmile_qr_scan"}, "name": "Dodge Ave & Church St", "lat": 42.048308, "region_id": "35", "station_id": "a3b2f698-a135-11e9-9cda-0a87ae2ba916", "lon": -87.698224}, {"capacity": 4, "short_name": "PI00003", "rental_uris": {"ios": "https://chi.lft.to/lastmile_qr_scan", "android": "https://chi.lft.to/lastmile_qr_scan"}, "name": "Leavitt St/North Ave", "lat": 41.910077, "station_id": "1866477298337982542", "lon": -87.682306}, {"capacity": 15, "short_name": "23182", "rental_uris": {"ios": "https://chi.lft.to/lastmile_qr_scan", "android": "https://chi.lft.to/lastmile_qr_scan"}, "name": "Central Ave & Altgeld St", "lat": 41.9258119, "station_id": "1932496568454183892", "lon": -87.7663685}, {"capacity": 39, "short_name": "TA1305000006", "rental_uris": {"ios": "https://chi.lft.to/lastmile_qr_scan", "android": "https://chi.lft.to/lastmile_qr_scan"}, "name": "Dearborn St & Monroe St", "lat": 41.881319815, "station_id": "a3a45e3b-a135-11e9-9cda-0a87ae2ba916", "lon": -87.6295209193}, {"capacity": 15, "short_name": "KA1504000096", "rental_uris": {"ios": "https://chi.lft.to/lastmile_qr_scan", "android": "https://chi.lft.to/lastmile_qr_scan"}, "name": "Sawyer Ave & Irving Park Rd", "lat": 41.95358617895, "station_id": "a3afb917-a135-11e9-9cda-0a87ae2ba916", "lon": -87.7093107999}, {"capacity": 39, "short_name": "TA1306000010", "rental_uris": {"ios": "https://chi.lft.to/lastmile_qr_scan", "android": "https://chi.lft.to/lastmile_qr_scan"}, "name": "Daley Center Plaza", "lat": 41.884241, "station_id": "a3a4ea00-a135-11e9-9cda-0a87ae2ba916", "lon": -87.629634}, {"capacity": 15, "short_name": "20236", "rental_uris": {"ios": "https://chi.lft.to/lastmile_qr_scan", "android": "https://chi.lft.to/lastmile_qr_scan"}, "name": "Stony Island Ave & 90th St", "lat": 41.731394943302355, "station_id": "7e435d2a-617e-4c3f-bed0-a8801c20f265", "lon": -87.58574366569519}, {"capacity": 15, "short_name": "21325", "rental_uris": {"ios": "https://chi.lft.to/lastmile_qr_scan", "android": "https://chi.lft.to/lastmile_qr_scan"}, "name": "Harlem Ave & Grace St", "lat": 41.94894, "station_id": "1962566135789175644", "lon": -87.80683}, {"capacity": 19, "short_name": "KP1705001026", "rental_uris": {"ios": "https://chi.lft.to/lastmile_qr_scan", "android": "https://chi.lft.to/lastmile_qr_scan"}, "name": "LaSalle Dr & Huron St", "lat": 41.894877, "station_id": "a3b3820c-a135-11e9-9cda-0a87ae2ba916", "lon": -87.632326}, {"capacity": 15, "short_name": "23138", "rental_uris": {"ios": "https://chi.lft.to/lastmile_qr_scan", "android": "https://chi.lft.to/lastmile_qr_scan"}, "name": "St. Louis & 71st St", "lat": 41.764354, "station_id": "1861613253877461614", "lon": -87.710121}, {"capacity": 15, "short_name": "24352", "rental_uris": {"ios": "https://chi.lft.to/lastmile_qr_scan", "android": "https://chi.lft.to/lastmile_qr_scan"}, "name": "Vincennes Ave & 79th St", "lat": 41.7506, "station_id": "1966306862968688728", "lon": -87.63409}, {"capacity": 11, "short_name": "577", "rental_uris": {"ios": "https://chi.lft.to/lastmile_qr_scan", "android": "https://chi.lft.to/lastmile_qr_scan"}, "name": "Stony Island Ave & South Chicago Ave", "lat": 41.751173, "station_id": "a3b2810e-a135-11e9-9cda-0a87ae2ba916", "lon": -87.585337}, {"capacity": 15, "short_name": "660", "rental_uris": {"ios": "https://chi.lft.to/lastmile_qr_scan", "android": "https://chi.lft.to/lastmile_qr_scan"}, "name": "Sheridan Rd & Columbia Ave", "lat": 42.004583, "station_id": "a3b49122-a135-11e9-9cda-0a87ae2ba916", "lon": -87.661406}, {"capacity": 19, "short_name": "515", "rental_uris": {"ios": "https://chi.lft.to/lastmile_qr_scan", "android": "https://chi.lft.to/lastmile_qr_scan"}, "name": "Paulina St & Howard St", "lat": 42.019159, "station_id": "a3b0d1d5-a135-11e9-9cda-0a87ae2ba916", "lon": -87.673573}, {"capacity": 27, "short_name": "KA1503000074", "rental_uris": {"ios": "https://chi.lft.to/lastmile_qr_scan", "android": "https://chi.lft.to/lastmile_qr_scan"}, "name": "Griffin Museum of Science and Industry", "lat": 41.79172820953, "station_id": "a3ad8587-a135-11e9-9cda-0a87ae2ba916", "lon": -87.583945009}, {"capacity": 15, "short_name": "TA1309000018", "rental_uris": {"ios": "https://chi.lft.to/lastmile_qr_scan", "android": "https://chi.lft.to/lastmile_qr_scan"}, "name": "Ravenswood Ave & Berteau Ave", "lat": 41.957921, "station_id": "a3aa7373-a135-11e9-9cda-0a87ae2ba916", "lon": -87.673567}, {"capacity": 19, "short_name": "13193", "rental_uris": {"ios": "https://chi.lft.to/lastmile_qr_scan", "android": "https://chi.lft.to/lastmile_qr_scan"}, "name": "Larrabee St & Webster Ave", "lat": 41.921822, "station_id": "a3a62025-a135-11e9-9cda-0a87ae2ba916", "lon": -87.64414}, {"capacity": 15, "short_name": "24371", "rental_uris": {"ios": "https://chi.lft.to/lastmile_qr_scan", "android": "https://chi.lft.to/lastmile_qr_scan"}, "name": "Lavergne Ave & Lawrence Ave", "lat": 41.96775, "station_id": "1969204473221170122", "lon": -87.75259}, {"capacity": 31, "short_name": "13138", "rental_uris": {"ios": "https://chi.lft.to/lastmile_qr_scan", "android": "https://chi.lft.to/lastmile_qr_scan"}, "name": "Canal St & Jackson Blvd", "lat": 41.878125, "station_id": "a3a4d069-a135-11e9-9cda-0a87ae2ba916", "lon": -87.639968}, {"capacity": 11, "short_name": "571", "rental_uris": {"ios": "https://chi.lft.to/lastmile_qr_scan", "android": "https://chi.lft.to/lastmile_qr_scan"}, "name": "Vernon Ave & 75th St", "lat": 41.758361, "station_id": "a3b26084-a135-11e9-9cda-0a87ae2ba916", "lon": -87.614138}, {"capacity": 23, "short_name": "15530", "rental_uris": {"ios": "https://chi.lft.to/lastmile_qr_scan", "android": "https://chi.lft.to/lastmile_qr_scan"}, "name": "Rush St & Superior St", "lat": 41.89576474564, "station_id": "a3a6e866-a135-11e9-9cda-0a87ae2ba916", "lon": -87.6259080327}, {"capacity": 19, "short_name": "13289", "rental_uris": {"ios": "https://chi.lft.to/lastmile_qr_scan", "android": "https://chi.lft.to/lastmile_qr_scan"}, "name": "Eckhart Park", "lat": 41.89637337, "station_id": "a3a4f993-a135-11e9-9cda-0a87ae2ba916", "lon": -87.66098386}, {"capacity": 15, "short_name": "E007", "rental_uris": {"ios": "https://chi.lft.to/lastmile_qr_scan", "android": "https://chi.lft.to/lastmile_qr_scan"}, "name": "Central St & Girard Ave", "lat": 42.064313, "region_id": "35", "station_id": "a3b300d3-a135-11e9-9cda-0a87ae2ba916", "lon": -87.686152}, {"capacity": 15, "short_name": "20221", "rental_uris": {"ios": "https://chi.lft.to/lastmile_qr_scan", "android": "https://chi.lft.to/lastmile_qr_scan"}, "name": "Torrence Ave & 106th St", "lat": 41.702800850225906, "station_id": "14d6e4b0-d0cc-4ccb-b757-e596d8c24a99", "lon": -87.55972623825073}, {"capacity": 19, "short_name": "SL-008", "rental_uris": {"ios": "https://chi.lft.to/lastmile_qr_scan", "android": "https://chi.lft.to/lastmile_qr_scan"}, "name": "Federal St & Polk St", "lat": 41.87207763285, "station_id": "a3a434ce-a135-11e9-9cda-0a87ae2ba916", "lon": -87.6295437729}, {"capacity": 15, "short_name": "17660", "rental_uris": {"ios": "https://chi.lft.to/lastmile_qr_scan", "android": "https://chi.lft.to/lastmile_qr_scan"}, "name": "California Ave & Cortez St", "lat": 41.900363, "station_id": "a3b3686c-a135-11e9-9cda-0a87ae2ba916", "lon": -87.696704}, {"capacity": 11, "short_name": "569", "rental_uris": {"ios": "https://chi.lft.to/lastmile_qr_scan", "android": "https://chi.lft.to/lastmile_qr_scan"}, "name": "Woodlawn Ave & 75th St", "lat": 41.75916, "station_id": "a3b25656-a135-11e9-9cda-0a87ae2ba916", "lon": -87.595751}, {"capacity": 15, "short_name": "KA1504000106", "rental_uris": {"ios": "https://chi.lft.to/lastmile_qr_scan", "android": "https://chi.lft.to/lastmile_qr_scan"}, "name": "Kedzie Ave & Lake St", "lat": 41.88460328501, "station_id": "a3acacbc-a135-11e9-9cda-0a87ae2ba916", "lon": -87.7063037436}, {"capacity": 15, "short_name": "KA1503000070", "rental_uris": {"ios": "https://chi.lft.to/lastmile_qr_scan", "android": "https://chi.lft.to/lastmile_qr_scan"}, "name": "Harper Ave & 59th St", "lat": 41.78794281287, "station_id": "a3ad8aa3-a135-11e9-9cda-0a87ae2ba916", "lon": -87.5883151702}, {"capacity": 15, "short_name": "23167", "rental_uris": {"ios": "https://chi.lft.to/lastmile_qr_scan", "android": "https://chi.lft.to/lastmile_qr_scan"}, "name": "Laramie Ave & Addison St", "lat": 41.9456842, "station_id": "1926946441362045298", "lon": -87.7569344}, {"capacity": 11, "short_name": "517", "rental_uris": {"ios": "https://chi.lft.to/lastmile_qr_scan", "android": "https://chi.lft.to/lastmile_qr_scan"}, "name": "Clark St & Jarvis Ave", "lat": 42.015963, "station_id": "a3b0d6ec-a135-11e9-9cda-0a87ae2ba916", "lon": -87.675005}, {"capacity": 12, "short_name": "24333", "rental_uris": {"ios": "https://chi.lft.to/lastmile_qr_scan", "android": "https://chi.lft.to/lastmile_qr_scan"}, "name": "Oriole Ave & Irving Park Rd", "lat": 41.95224, "station_id": "1988925731902098196", "lon": -87.81697}, {"capacity": 11, "short_name": "20222", "rental_uris": {"ios": "https://chi.lft.to/lastmile_qr_scan", "android": "https://chi.lft.to/lastmile_qr_scan"}, "name": "Burnham Greenway & 105th St", "lat": 41.7045750872071, "station_id": "c1f104db-9ee7-4999-bd4a-ddd766c75e04", "lon": -87.52823173999786}, {"capacity": 7, "short_name": "16933", "rental_uris": {"ios": "https://chi.lft.to/lastmile_qr_scan", "android": "https://chi.lft.to/lastmile_qr_scan"}, "name": "Morgan St & Pershing Rd", "lat": 41.823613, "station_id": "a3b1eaa7-a135-11e9-9cda-0a87ae2ba916", "lon": -87.650931}, {"capacity": 23, "short_name": "18067", "rental_uris": {"ios": "https://chi.lft.to/lastmile_qr_scan", "android": "https://chi.lft.to/lastmile_qr_scan"}, "name": "Walsh Park", "lat": 41.91461, "station_id": "a3b38728-a135-11e9-9cda-0a87ae2ba916", "lon": -87.667968}, {"capacity": 15, "short_name": "E011", "rental_uris": {"ios": "https://chi.lft.to/lastmile_qr_scan", "android": "https://chi.lft.to/lastmile_qr_scan"}, "name": "Dodge Ave & Main St", "lat": 42.03463185161588, "region_id": "35", "station_id": "a3b377cb-a135-11e9-9cda-0a87ae2ba916", "lon": -87.69918769598006}, {"capacity": 19, "short_name": "13136", "rental_uris": {"ios": "https://chi.lft.to/lastmile_qr_scan", "android": "https://chi.lft.to/lastmile_qr_scan"}, "name": "Damen Ave & Division St", "lat": 41.903266, "station_id": "a3a5d8db-a135-11e9-9cda-0a87ae2ba916", "lon": -87.678435}, {"capacity": 19, "short_name": "TA1309000050", "rental_uris": {"ios": "https://chi.lft.to/lastmile_qr_scan", "android": "https://chi.lft.to/lastmile_qr_scan"}, "name": "Lincoln Ave & Addison St", "lat": 41.946176, "station_id": "a3aaca0e-a135-11e9-9cda-0a87ae2ba916", "lon": -87.673308}, {"capacity": 15, "short_name": "15652", "rental_uris": {"ios": "https://chi.lft.to/lastmile_qr_scan", "android": "https://chi.lft.to/lastmile_qr_scan"}, "name": "Central Park Ave & North Ave", "lat": 41.90965687563, "station_id": "a3b02ef1-a135-11e9-9cda-0a87ae2ba916", "lon": -87.7166319516}, {"capacity": 15, "short_name": "20125", "rental_uris": {"ios": "https://chi.lft.to/lastmile_qr_scan", "android": "https://chi.lft.to/lastmile_qr_scan"}, "name": "Halsted St & 104th St", "lat": 41.70513978893236, "station_id": "22afe78c-e8f7-4a80-969e-7ddeafdf49da", "lon": -87.6424241065979}, {"capacity": 15, "short_name": "21323", "rental_uris": {"ios": "https://chi.lft.to/lastmile_qr_scan", "android": "https://chi.lft.to/lastmile_qr_scan"}, "name": "Merrimac Park", "lat": 41.95261, "station_id": "1958860355622110046", "lon": -87.78535}, {"capacity": 16, "short_name": "24412", "rental_uris": {"ios": "https://chi.lft.to/lastmile_qr_scan", "android": "https://chi.lft.to/lastmile_qr_scan"}, "name": "Stewart Ave & 123rd St", "lat": 41.6706, "station_id": "1989976253005812134", "lon": -87.63244}, {"capacity": 23, "short_name": "13042", "rental_uris": {"ios": "https://chi.lft.to/lastmile_qr_scan", "android": "https://chi.lft.to/lastmile_qr_scan"}, "name": "Michigan Ave & Oak St", "lat": 41.90096039, "station_id": "a3a4f46b-a135-11e9-9cda-0a87ae2ba916", "lon": -87.62377664}, {"capacity": 15, "short_name": "KA150400009X", "rental_uris": {"ios": "https://chi.lft.to/lastmile_qr_scan", "android": "https://chi.lft.to/lastmile_qr_scan"}, "name": "Kimball Ave & Belmont Ave", "lat": 41.93939395344302, "station_id": "a3aff616-a135-11e9-9cda-0a87ae2ba916", "lon": -87.71206766366959}, {"capacity": 15, "short_name": "KA1503000072", "rental_uris": {"ios": "https://chi.lft.to/lastmile_qr_scan", "android": "https://chi.lft.to/lastmile_qr_scan"}, "name": "Wacker Dr & Washington St", "lat": 41.88314336439022, "station_id": "a3a3bc53-a135-11e9-9cda-0a87ae2ba916", "lon": -87.63724207878113}, {"capacity": 35, "short_name": "TA1305000011", "rental_uris": {"ios": "https://chi.lft.to/lastmile_qr_scan", "android": "https://chi.lft.to/lastmile_qr_scan"}, "name": "Michigan Ave & Lake St", "lat": 41.886022, "station_id": "a3a46e71-a135-11e9-9cda-0a87ae2ba916", "lon": -87.624398}, {"capacity": 16, "short_name": "24338", "rental_uris": {"ios": "https://chi.lft.to/lastmile_qr_scan", "android": "https://chi.lft.to/lastmile_qr_scan"}, "name": "Wallace St & Pershing Rd", "lat": 41.82339, "station_id": "1990029911253170300", "lon": -87.64118}, {"capacity": 16, "short_name": "24335", "rental_uris": {"ios": "https://chi.lft.to/lastmile_qr_scan", "android": "https://chi.lft.to/lastmile_qr_scan"}, "name": "Newcastle Ave & Irving Park Rd", "lat": 41.95256, "station_id": "1981474194261928388", "lon": -87.79755}, {"capacity": 11, "short_name": "18016", "rental_uris": {"ios": "https://chi.lft.to/lastmile_qr_scan", "android": "https://chi.lft.to/lastmile_qr_scan"}, "name": "Bernard St & Elston Ave", "lat": 41.949923, "station_id": "a3b42a3e-a135-11e9-9cda-0a87ae2ba916", "lon": -87.713949}, {"capacity": 11, "short_name": "16806", "rental_uris": {"ios": "https://chi.lft.to/lastmile_qr_scan", "android": "https://chi.lft.to/lastmile_qr_scan"}, "name": "Bosworth Ave & Howard St", "lat": 42.019537, "station_id": "a3b0eb93-a135-11e9-9cda-0a87ae2ba916", "lon": -87.669563}, {"capacity": 16, "short_name": "24322", "rental_uris": {"ios": "https://chi.lft.to/lastmile_qr_scan", "android": "https://chi.lft.to/lastmile_qr_scan"}, "name": "Overhill Ave & Belmont Ave", "lat": 41.93799, "station_id": "1982154088199745678", "lon": -87.81915}, {"capacity": 15, "short_name": "604", "rental_uris": {"ios": "https://chi.lft.to/lastmile_qr_scan", "android": "https://chi.lft.to/lastmile_qr_scan"}, "name": "Sheridan Rd & Noyes St (NU)", "lat": 42.058239, "region_id": "35", "station_id": "a3b30b06-a135-11e9-9cda-0a87ae2ba916", "lon": -87.677432}, {"capacity": 15, "short_name": "KA1503000029", "rental_uris": {"ios": "https://chi.lft.to/lastmile_qr_scan", "android": "https://chi.lft.to/lastmile_qr_scan"}, "name": "South Shore Dr & 67th St", "lat": 41.773643, "station_id": "a3ac4548-a135-11e9-9cda-0a87ae2ba916", "lon": -87.567514}, {"capacity": 15, "short_name": "24132", "rental_uris": {"ios": "https://chi.lft.to/lastmile_qr_scan", "android": "https://chi.lft.to/lastmile_qr_scan"}, "name": "Damen Ave & 77th St", "lat": 41.75420305676257, "station_id": "1943240055911940522", "lon": -87.67322449999999}, {"capacity": 16, "short_name": "24263", "rental_uris": {"ios": "https://chi.lft.to/lastmile_qr_scan", "android": "https://chi.lft.to/lastmile_qr_scan"}, "name": "Sacramento Ave & 51st St", "lat": 41.80068, "station_id": "1989627762882635936", "lon": -87.69895}, {"capacity": 15, "short_name": "24212", "rental_uris": {"ios": "https://chi.lft.to/lastmile_qr_scan", "android": "https://chi.lft.to/lastmile_qr_scan"}, "name": "California Ave & Madison St", "lat": 41.88098, "station_id": "1958859209051740602", "lon": -87.69598}, {"capacity": 15, "short_name": "KA1503000049.1", "rental_uris": {"ios": "https://chi.lft.to/lastmile_qr_scan", "android": "https://chi.lft.to/lastmile_qr_scan"}, "name": "Rainbow - Beach", "lat": 41.75787144829, "station_id": "1870208802121658482", "lon": -87.54938625}, {"capacity": 15, "short_name": "23120", "rental_uris": {"ios": "https://chi.lft.to/lastmile_qr_scan", "android": "https://chi.lft.to/lastmile_qr_scan"}, "name": "Damen Ave & 81st St", "lat": 41.746534, "station_id": "1863873159929715228", "lon": -87.673055}, {"capacity": 11, "short_name": "RP-006", "rental_uris": {"ios": "https://chi.lft.to/lastmile_qr_scan", "android": "https://chi.lft.to/lastmile_qr_scan"}, "name": "Ridge Blvd & Touhy Ave", "lat": 42.01213227742, "station_id": "a3af5804-a135-11e9-9cda-0a87ae2ba916", "lon": -87.6829126443}, {"capacity": 15, "short_name": "24144", "rental_uris": {"ios": "https://chi.lft.to/lastmile_qr_scan", "android": "https://chi.lft.to/lastmile_qr_scan"}, "name": "Central Park Ave & 66th St", "lat": 41.773258, "station_id": "1934290793283144612", "lon": -87.713143}, {"capacity": 15, "short_name": "632", "rental_uris": {"ios": "https://chi.lft.to/lastmile_qr_scan", "android": "https://chi.lft.to/lastmile_qr_scan"}, "name": "Clark St & Newport St", "lat": 41.94454, "station_id": "a3b3968b-a135-11e9-9cda-0a87ae2ba916", "lon": -87.654678}, {"capacity": 11, "short_name": "KA1504000155", "rental_uris": {"ios": "https://chi.lft.to/lastmile_qr_scan", "android": "https://chi.lft.to/lastmile_qr_scan"}, "name": "2112 W Peterson Ave", "lat": 41.991178, "station_id": "a3af2216-a135-11e9-9cda-0a87ae2ba916", "lon": -87.683593}, {"capacity": 19, "short_name": "13108", "rental_uris": {"ios": "https://chi.lft.to/lastmile_qr_scan", "android": "https://chi.lft.to/lastmile_qr_scan"}, "name": "Broadway & Argyle St", "lat": 41.97423, "station_id": "a3aa10ca-a135-11e9-9cda-0a87ae2ba916", "lon": -87.6597735}, {"capacity": 19, "short_name": "TA1306000008", "rental_uris": {"ios": "https://chi.lft.to/lastmile_qr_scan", "android": "https://chi.lft.to/lastmile_qr_scan"}, "name": "Larrabee St & North Ave", "lat": 41.91021, "station_id": "a3a3eb9a-a135-11e9-9cda-0a87ae2ba916", "lon": -87.6435}, {"capacity": 16, "short_name": "24356", "rental_uris": {"ios": "https://chi.lft.to/lastmile_qr_scan", "android": "https://chi.lft.to/lastmile_qr_scan"}, "name": "Halsted St & 93rd St", "lat": 41.72489, "station_id": "2014856357079685426", "lon": -87.64358}, {"capacity": 11, "short_name": "549", "rental_uris": {"ios": "https://chi.lft.to/lastmile_qr_scan", "android": "https://chi.lft.to/lastmile_qr_scan"}, "name": "Marshfield Ave & 44th St", "lat": 41.813996, "station_id": "a3b1efd6-a135-11e9-9cda-0a87ae2ba916", "lon": -87.666589}, {"capacity": 11, "short_name": "15585", "rental_uris": {"ios": "https://chi.lft.to/lastmile_qr_scan", "android": "https://chi.lft.to/lastmile_qr_scan"}, "name": "Budlong Woods Library", "lat": 41.98366470886, "station_id": "a3af624c-a135-11e9-9cda-0a87ae2ba916", "lon": -87.6964225611}, {"capacity": 11, "short_name": "560", "rental_uris": {"ios": "https://chi.lft.to/lastmile_qr_scan", "android": "https://chi.lft.to/lastmile_qr_scan"}, "name": "Marshfield Ave & 59th St", "lat": 41.786833, "station_id": "a3b22815-a135-11e9-9cda-0a87ae2ba916", "lon": -87.666215}, {"capacity": 16, "short_name": "24363", "rental_uris": {"ios": "https://chi.lft.to/lastmile_qr_scan", "android": "https://chi.lft.to/lastmile_qr_scan"}, "name": "Portage Park", "lat": 41.95607, "station_id": "2008158642964226604", "lon": -87.76472}, {"capacity": 23, "short_name": "KA1503000015", "rental_uris": {"ios": "https://chi.lft.to/lastmile_qr_scan", "android": "https://chi.lft.to/lastmile_qr_scan"}, "name": "Wabash Ave & Adams St", "lat": 41.87947235235, "station_id": "a3a42a93-a135-11e9-9cda-0a87ae2ba916", "lon": -87.6256886059}, {"capacity": 11, "short_name": "13053", "rental_uris": {"ios": "https://chi.lft.to/lastmile_qr_scan", "android": "https://chi.lft.to/lastmile_qr_scan"}, "name": "Green St & Washington Blvd", "lat": 41.88318130597391, "station_id": "a3a57a52-a135-11e9-9cda-0a87ae2ba916", "lon": -87.64872461557388}, {"capacity": 15, "short_name": "23170", "rental_uris": {"ios": "https://chi.lft.to/lastmile_qr_scan", "android": "https://chi.lft.to/lastmile_qr_scan"}, "name": "Marmora Ave & Belmont Ave", "lat": 41.9382897, "station_id": "1890603435601779460", "lon": -87.7737692}, {"capacity": 15, "short_name": "23124", "rental_uris": {"ios": "https://chi.lft.to/lastmile_qr_scan", "android": "https://chi.lft.to/lastmile_qr_scan"}, "name": "Wood St & 84th St", "lat": 41.741192, "station_id": "1863873701095594368", "lon": -87.668106}, {"capacity": 19, "short_name": "TA1307000130", "rental_uris": {"ios": "https://chi.lft.to/lastmile_qr_scan", "android": "https://chi.lft.to/lastmile_qr_scan"}, "name": "Morgan St & Polk St", "lat": 41.871737, "station_id": "a3a8711c-a135-11e9-9cda-0a87ae2ba916", "lon": -87.65103}, {"capacity": 15, "short_name": "13099", "rental_uris": {"ios": "https://chi.lft.to/lastmile_qr_scan", "android": "https://chi.lft.to/lastmile_qr_scan"}, "name": "Halsted St & 18th St", "lat": 41.85750568031716, "station_id": "a3a7af11-a135-11e9-9cda-0a87ae2ba916", "lon": -87.64599144458771}, {"capacity": 11, "short_name": "16903", "rental_uris": {"ios": "https://chi.lft.to/lastmile_qr_scan", "android": "https://chi.lft.to/lastmile_qr_scan"}, "name": "Cicero Ave & Lake St", "lat": 41.886841, "station_id": "a3b10f66-a135-11e9-9cda-0a87ae2ba916", "lon": -87.745261}, {"capacity": 11, "short_name": "KA1503000051", "rental_uris": {"ios": "https://chi.lft.to/lastmile_qr_scan", "android": "https://chi.lft.to/lastmile_qr_scan"}, "name": "Halsted St & 47th Pl", "lat": 41.80813391481, "station_id": "a3ad42c3-a135-11e9-9cda-0a87ae2ba916", "lon": -87.6456165545}, {"capacity": 15, "short_name": "TA1309000061", "rental_uris": {"ios": "https://chi.lft.to/lastmile_qr_scan", "android": "https://chi.lft.to/lastmile_qr_scan"}, "name": "Halsted St & Wrightwood Ave", "lat": 41.929143, "station_id": "a3ac2671-a135-11e9-9cda-0a87ae2ba916", "lon": -87.649077}, {"capacity": 15, "short_name": "20233", "rental_uris": {"ios": "https://chi.lft.to/lastmile_qr_scan", "android": "https://chi.lft.to/lastmile_qr_scan"}, "name": "Halsted St & 78th St", "lat": 41.75248701249013, "station_id": "c3f1be96-07c2-4c65-8a1d-f2203de88495", "lon": -87.6439021574879}, {"capacity": 11, "short_name": "24376", "rental_uris": {"ios": "https://chi.lft.to/lastmile_qr_scan", "android": "https://chi.lft.to/lastmile_qr_scan"}, "name": "University Ave & 65th St", "lat": 41.77694, "station_id": "1965904499533560722", "lon": -87.59842}, {"capacity": 19, "short_name": "13075", "rental_uris": {"ios": "https://chi.lft.to/lastmile_qr_scan", "android": "https://chi.lft.to/lastmile_qr_scan"}, "name": "Wentworth Ave & Cermak Rd", "lat": 41.85308455741279, "station_id": "a3a5a48b-a135-11e9-9cda-0a87ae2ba916", "lon": -87.63193130493164}, {"capacity": 11, "short_name": "KA1503000040", "rental_uris": {"ios": "https://chi.lft.to/lastmile_qr_scan", "android": "https://chi.lft.to/lastmile_qr_scan"}, "name": "Loomis St & Archer Ave", "lat": 41.84163253965, "station_id": "a3ac7978-a135-11e9-9cda-0a87ae2ba916", "lon": -87.6574349533}, {"capacity": 11, "short_name": "15687", "rental_uris": {"ios": "https://chi.lft.to/lastmile_qr_scan", "android": "https://chi.lft.to/lastmile_qr_scan"}, "name": "Central Park Ave & 24th St", "lat": 41.8481, "station_id": "a3add889-a135-11e9-9cda-0a87ae2ba916", "lon": -87.715068}, {"capacity": 15, "short_name": "21382", "rental_uris": {"ios": "https://chi.lft.to/lastmile_qr_scan", "android": "https://chi.lft.to/lastmile_qr_scan"}, "name": "Kedzie Ave & 48th Pl", "lat": 41.804758123768394, "station_id": "1934290131858180982", "lon": -87.70421936879356}, {"capacity": 12, "short_name": "24308", "rental_uris": {"ios": "https://chi.lft.to/lastmile_qr_scan", "android": "https://chi.lft.to/lastmile_qr_scan"}, "name": "Narragansett Ave & North Ave", "lat": 41.9095, "station_id": "2012672652900879218", "lon": -87.78491}, {"capacity": 11, "short_name": "16905", "rental_uris": {"ios": "https://chi.lft.to/lastmile_qr_scan", "android": "https://chi.lft.to/lastmile_qr_scan"}, "name": "Central Ave & Lake St", "lat": 41.887664, "station_id": "a3b11993-a135-11e9-9cda-0a87ae2ba916", "lon": -87.765469}, {"capacity": 16, "short_name": "24425", "rental_uris": {"ios": "https://chi.lft.to/lastmile_qr_scan", "android": "https://chi.lft.to/lastmile_qr_scan"}, "name": "Aberdeen St & 103rd St", "lat": 41.70704, "station_id": "2014856134756363200", "lon": -87.65022}, {"capacity": 11, "short_name": "16937", "rental_uris": {"ios": "https://chi.lft.to/lastmile_qr_scan", "android": "https://chi.lft.to/lastmile_qr_scan"}, "name": "Ashland Ave & McDowell Ave", "lat": 41.809719, "station_id": "a3b1ff34-a135-11e9-9cda-0a87ae2ba916", "lon": -87.663477}, {"capacity": 19, "short_name": "15628", "rental_uris": {"ios": "https://chi.lft.to/lastmile_qr_scan", "android": "https://chi.lft.to/lastmile_qr_scan"}, "name": "California Ave & Byron St", "lat": 41.95216219326, "station_id": "a3afc347-a135-11e9-9cda-0a87ae2ba916", "lon": -87.698051113}, {"capacity": 19, "short_name": "TA1306000011", "rental_uris": {"ios": "https://chi.lft.to/lastmile_qr_scan", "android": "https://chi.lft.to/lastmile_qr_scan"}, "name": "Wells St & Walton St", "lat": 41.89993001, "station_id": "a3a44ec7-a135-11e9-9cda-0a87ae2ba916", "lon": -87.63443007}, {"capacity": 11, "short_name": "582", "rental_uris": {"ios": "https://chi.lft.to/lastmile_qr_scan", "android": "https://chi.lft.to/lastmile_qr_scan"}, "name": "Phillips Ave & 83rd St", "lat": 41.744531, "station_id": "a3b29a90-a135-11e9-9cda-0a87ae2ba916", "lon": -87.56506}, {"capacity": 7, "short_name": "651", "rental_uris": {"ios": "https://chi.lft.to/lastmile_qr_scan", "android": "https://chi.lft.to/lastmile_qr_scan"}, "name": "Michigan Ave & 71st St", "lat": 41.765286, "station_id": "61695579-2f75-4090-a071-c76079b5fb5d", "lon": -87.621748}, {"capacity": 15, "short_name": "20102", "rental_uris": {"ios": "https://chi.lft.to/lastmile_qr_scan", "android": "https://chi.lft.to/lastmile_qr_scan"}, "name": "Loomis St & 89th St", "lat": 41.73237975329554, "station_id": "87d2a090-22cd-471b-b622-fef3923999dd", "lon": -87.65806943178177}, {"capacity": 11, "short_name": "TA1308000014", "rental_uris": {"ios": "https://chi.lft.to/lastmile_qr_scan", "android": "https://chi.lft.to/lastmile_qr_scan"}, "name": "Normal Ave & Archer Ave", "lat": 41.849527, "station_id": "a3a7d279-a135-11e9-9cda-0a87ae2ba916", "lon": -87.640591}, {"capacity": 11, "short_name": "23101", "rental_uris": {"ios": "https://chi.lft.to/lastmile_qr_scan", "android": "https://chi.lft.to/lastmile_qr_scan"}, "name": "McCormick Blvd & Devon Ave", "lat": 41.997136, "station_id": "1861588043429399408", "lon": -87.711217}, {"capacity": 15, "short_name": "15643", "rental_uris": {"ios": "https://chi.lft.to/lastmile_qr_scan", "android": "https://chi.lft.to/lastmile_qr_scan"}, "name": "Kosciuszko Park", "lat": 41.93058537138, "station_id": "a3b00055-a135-11e9-9cda-0a87ae2ba916", "lon": -87.7237773635}, {"capacity": 15, "short_name": "13354", "rental_uris": {"ios": "https://chi.lft.to/lastmile_qr_scan", "android": "https://chi.lft.to/lastmile_qr_scan"}, "name": "Ashland Ave & 13th St", "lat": 41.865234, "station_id": "a3a9a778-a135-11e9-9cda-0a87ae2ba916", "lon": -87.666507}, {"capacity": 15, "short_name": "13307", "rental_uris": {"ios": "https://chi.lft.to/lastmile_qr_scan", "android": "https://chi.lft.to/lastmile_qr_scan"}, "name": "Laflin St & Cullerton St", "lat": 41.85491457576575, "station_id": "a3a7cd56-a135-11e9-9cda-0a87ae2ba916", "lon": -87.66355991363525}, {"capacity": 11, "short_name": "650", "rental_uris": {"ios": "https://chi.lft.to/lastmile_qr_scan", "android": "https://chi.lft.to/lastmile_qr_scan"}, "name": "Eggleston Ave & 69th St", "lat": 41.768898, "station_id": "a3b45e26-a135-11e9-9cda-0a87ae2ba916", "lon": -87.635876}, {"capacity": 7, "short_name": "18025", "rental_uris": {"ios": "https://chi.lft.to/lastmile_qr_scan", "android": "https://chi.lft.to/lastmile_qr_scan"}, "name": "Carpenter St & 63rd St", "lat": 41.77987, "station_id": "a3b453f2-a135-11e9-9cda-0a87ae2ba916", "lon": -87.650919}, {"capacity": 15, "short_name": "1523185.1", "rental_uris": {"ios": "https://chi.lft.to/lastmile_qr_scan", "android": "https://chi.lft.to/lastmile_qr_scan"}, "name": "Mason Ave & Grand Ave", "lat": 41.9204347, "station_id": "1930641272056945296", "lon": -87.7743901}, {"capacity": 35, "short_name": "KA1503000012", "rental_uris": {"ios": "https://chi.lft.to/lastmile_qr_scan", "android": "https://chi.lft.to/lastmile_qr_scan"}, "name": "Clark St & Lake St", "lat": 41.88602082773, "station_id": "a3a42574-a135-11e9-9cda-0a87ae2ba916", "lon": -87.6308760584}, {"capacity": 11, "short_name": "16010", "rental_uris": {"ios": "https://chi.lft.to/lastmile_qr_scan", "android": "https://chi.lft.to/lastmile_qr_scan"},